Row Labels,code5,name,province_name,lat,lon,patient,count,budget,status,remark,ลำดับ,รหัสสถานบริการ,ชื่อสถานบริการ,ตำบล/แขวงที่ตั้ง,อำเภอ/เขตที่ตั้ง,จังหวัดที่ตั้ง,สปสช.เขตที่ตั้ง,สถานะการขึ้นทะเบียน,สังกัดหลัก,สังกัดย่อย,ที่ตั้ง,จำนวนเตียง,หน่วยบริการ,วันที่เข้า,วันที่ออก
04007-รพ.ซับใหญ่,4007,รพ.ซับใหญ่,ชัยภูมิ,15.6371074,101.6167305,20,20,60000,open,,1,4007,โรงพยาบาลซับใหญ่,ซับใหญ่,ซับใหญ่,ชัยภูมิ,เขต 9 นครราชสีมา,หน่วยบริการในระบบหลักประกันสุขภาพแห่งชาติ,รัฐในสธ.(สังกัด สป.),โรงพยาบาลชุมชน (รพช.) / โรงพยาบาลยุพราช (รพร.),- หมู่ที่01 ซอย- ถนน- ตำบลซับใหญ่ อำเภอซับใหญ่ จังหวัดชัยภูมิ 36130,30,หน่วยบริการที่รับการส่งต่อทั่วไป CAPITATION,21/08/2563,-
,10661,,สระบุรี,,,-,-,-,-,,2,10661,โรงพยาบาลศูนย์สระบุรี,ปากเพรียว,เมืองสระบุรี,สระบุรี,เขต 4 สระบุรี,หน่วยบริการในระบบหลักประกันสุขภาพแห่งชาติ,รัฐในสธ.(สังกัด สป.),โรงพยาบาลศูนย์ (รพศ.),18 หมู่ที่- ซอย- ถนนเทศบาล4 ตำบลปากเพรียว อำเภอเมืองสระบุรี จังหวัดสระบุรี 18000,700,หน่วยบริการที่รับการส่งต่อทั่วไป CAPITATION,26/12/2568,-
10662-รพ.ชลบุรี,10662,รพ.ชลบุรี,ชลบุรี,13.35215321,100.9821304,204,204,612000,open,,3,10662,โรงพยาบาลชลบุรี,บ้านสวน,เมืองชลบุรี,ชลบุรี,เขต 6 ระยอง,หน่วยบริการในระบบหลักประกันสุขภาพแห่งชาติ,รัฐในสธ.(สังกัด สป.),โรงพยาบาลศูนย์ (รพศ.),69 หมู่ที่02 ซอย- ถนนสุขุมวิท ตำบลบ้านสวน อำเภอเมืองชลบุรี จังหวัดชลบุรี 20000,850,หน่วยบริการที่รับการส่งต่อทั่วไป CAPITATION,1/7/2564,-
10663-รพ.ระยอง,10663,รพ.ระยอง,ระยอง,12.682,101.2765,-,-,-,open,,4,10663,โรงพยาบาลศูนย์ระยอง,ท่าประดู่,เมืองระยอง,ระยอง,เขต 6 ระยอง,หน่วยบริการในระบบหลักประกันสุขภาพแห่งชาติ,รัฐในสธ.(สังกัด สป.),โรงพยาบาลศูนย์ (รพศ.),138 หมู่ที่- ซอย- ถนนสุขุมวิท ตำบลท่าประดู่ อำเภอเมืองระยอง จังหวัดระยอง 21000,641,หน่วยบริการที่รับการส่งต่อทั่วไป CAPITATION,31/07/2568,-
10664-รพ.พระปกเกล้า,10664,รพ.พระปกเกล้า,จันทบุรี,12.60440016,102.1023162,164,164,492000,open,,5,10664,โรงพยาบาลศูนย์พระปกเกล้า,วัดใหม่,เมืองจันทบุรี,จันทบุรี,เขต 6 ระยอง,หน่วยบริการในระบบหลักประกันสุขภาพแห่งชาติ,รัฐในสธ.(สังกัด สป.),โรงพยาบาลศูนย์ (รพศ.),38 หมู่ที่- ซอย- ถนนเลียบเนิน ตำบลวัดใหม่ อำเภอเมืองจันทบุรี จังหวัดจันทบุรี 22000,886,หน่วยบริการที่รับการส่งต่อทั่วไป CAPITATION,1/10/2561,-
10670-รพ.ขอนแก่น,10670,รพ.ขอนแก่น,ขอนแก่น,16.42925096,102.8491041,14,14,42000,open,,6,10670,โรงพยาบาลศูนย์ขอนแก่น,ในเมือง,เมืองขอนแก่น,ขอนแก่น,เขต 7 ขอนแก่น,หน่วยบริการในระบบหลักประกันสุขภาพแห่งชาติ,รัฐในสธ.(สังกัด สป.),โรงพยาบาลศูนย์ (รพศ.),54 หมู่ที่- ซอย- ถนนศรีจันทร์ ตำบลในเมือง อำเภอเมืองขอนแก่น จังหวัดขอนแก่น 40000,1098,หน่วยบริการที่รับการส่งต่อทั่วไป CAPITATION,1/10/2561,-
10671-รพ.อุดรธานี,10671,รพ.อุดรธานี,อุดรธานี,17.41498349,102.7804122,71,71,210366,open,,7,10671,โรงพยาบาลศูนย์อุดรธานี,หมากแข้ง,เมืองอุดรธานี,อุดรธานี,เขต 8 อุดรธานี,หน่วยบริการในระบบหลักประกันสุขภาพแห่งชาติ,รัฐในสธ.(สังกัด สป.),โรงพยาบาลศูนย์ (รพศ.),33 หมู่ที่- ซอย- ถนนเพาะนิยม ตำบลหมากแข้ง อำเภอเมืองอุดรธานี จังหวัดอุดรธานี 41000,1154,หน่วยบริการที่รับการส่งต่อทั่วไป CAPITATION,8/3/2566,-
10674-รพ.เชียงรายประชานุเคราะห์,10674,รพ.เชียงรายประชานุเคราะห์,เชียงราย,19.90094738,99.82920905,257,264,792000,open,,8,10674,โรงพยาบาลศูนย์เชียงรายประชานุเคราะห์,เวียง,เมืองเชียงราย,เชียงราย,เขต 1 เชียงใหม่,หน่วยบริการในระบบหลักประกันสุขภาพแห่งชาติ,รัฐในสธ.(สังกัด สป.),โรงพยาบาลศูนย์ (รพศ.),1039 หมู่ที่- ซอย- ถนนสถานพยาบาล ตำบลเวียง อำเภอเมืองเชียงราย จังหวัดเชียงราย 57000,733,หน่วยบริการที่รับการส่งต่อทั่วไป CAPITATION,1/10/2561,-
10679-รพ.นครปฐม,10679,รพ.นครปฐม,นครปฐม,13.8194,100.0749,-,-,-,open,,9,10679,โรงพยาบาลศูนย์นครปฐม,-,เมืองนครปฐม,นครปฐม,เขต 5 ราชบุรี,หน่วยบริการในระบบหลักประกันสุขภาพแห่งชาติ,รัฐในสธ.(สังกัด สป.),โรงพยาบาลศูนย์ (รพศ.),196 หมู่ที่- ซอย- ถนนเทศา ตำบล- อำเภอเมืองนครปฐม จังหวัดนครปฐม 73000,552,หน่วยบริการที่รับการส่งต่อทั่วไป CAPITATION,3/2/2569,-
10680-รพ.มหาราชนครศรีธรรมราช,10680,รพ.มหาราชนครศรีธรรมราช,นครศรีธรรมราช,8.390103918,99.97136505,87,87,261000,open,,10,10680,โรงพยาบาลศูนย์มหาราชนครศรีธรรมราช,ในเมือง,เมืองนครศรีธรรมราช,นครศรีธรรมราช,เขต 11 สุราษฎร์ธานี,หน่วยบริการในระบบหลักประกันสุขภาพแห่งชาติ,รัฐในสธ.(สังกัด สป.),โรงพยาบาลศูนย์ (รพศ.),198 หมู่ที่- ซอย- ถนนราชดำเนิน ตำบลในเมือง อำเภอเมืองนครศรีธรรมราช จังหวัดนครศรีธรรมราช 80000,1000,หน่วยบริการที่รับการส่งต่อทั่วไป CAPITATION,7/5/2563,-
10682-รพ.หาดใหญ่,10682,รพ.หาดใหญ่,สงขลา,7.016896172,100.4674875,494,533,1599000,open,,11,10682,โรงพยาบาลศูนย์หาดใหญ่,หาดใหญ่,หาดใหญ่,สงขลา,เขต 12 สงขลา,หน่วยบริการในระบบหลักประกันสุขภาพแห่งชาติ,รัฐในสธ.(สังกัด สป.),โรงพยาบาลศูนย์ (รพศ.),182 หมู่ที่- ซอย- ถนนรัถการ ตำบลหาดใหญ่ อำเภอหาดใหญ่ จังหวัดสงขลา 90110,655,หน่วยบริการที่รับการส่งต่อทั่วไป CAPITATION,1/10/2561,-
10683-รพ.ตรัง,10683,รพ.ตรัง,ตรัง,7.572498975,99.6204689,149,150,444000,open,,12,10683,โรงพยาบาลศูนย์ตรัง,ทับเที่ยง,เมืองตรัง,ตรัง,เขต 12 สงขลา,หน่วยบริการในระบบหลักประกันสุขภาพแห่งชาติ,รัฐในสธ.(สังกัด สป.),โรงพยาบาลศูนย์ (รพศ.),69 หมู่ที่- ซอย- ถนนโคกขัน ตำบลทับเที่ยง อำเภอเมืองตรัง จังหวัดตรัง 92000,553,หน่วยบริการที่รับการส่งต่อทั่วไป CAPITATION,1/10/2561,-
10685-รพ.สมุทรปราการ,10685,รพ.สมุทรปราการ,สมุทรปราการ,13.58382185,100.5973412,69,69,207000,open,,13,10685,โรงพยาบาลศูนย์สมุทรปราการ,ปากน้ำ,เมืองสมุทรปราการ,สมุทรปราการ,เขต 6 ระยอง,หน่วยบริการในระบบหลักประกันสุขภาพแห่งชาติ,รัฐในสธ.(สังกัด สป.),โรงพยาบาลศูนย์ (รพศ.),71 หมู่ที่- ซอย- ถนนจักรกะพาด ตำบลปากน้ำ อำเภอเมืองสมุทรปราการ จังหวัดสมุทรปราการ 10270,600,หน่วยบริการที่รับการส่งต่อทั่วไป CAPITATION,21/08/2563,-
10687-รพ.ปทุมธานี,10687,รพ.ปทุมธานี,ปทุมธานี,14.02076,100.52345,-,-,-,open,,14,10687,โรงพยาบาลทั่วไปปทุมธานี,บางปรอก,เมืองปทุมธานี,ปทุมธานี,เขต 4 สระบุรี,หน่วยบริการในระบบหลักประกันสุขภาพแห่งชาติ,รัฐในสธ.(สังกัด สป.),โรงพยาบาลทั่วไป (รพท.),7 หมู่ที่- ซอย- ถนนปทุมธานี-ลาดหลุมแก้ว ตำบลบางปรอก อำเภอเมืองปทุมธานี จังหวัดปทุมธานี 12000,408,หน่วยบริการที่รับการส่งต่อทั่วไป CAPITATION,31/07/2568,-
10692-รพ.สิงห์บุรี,10692,รพ.สิงห์บุรี,สิงห์บุรี,14.89678106,100.3976416,728,728,2184000,open,,15,10692,โรงพยาบาลทั่วไปสิงห์บุรี,บางพุทรา,เมืองสิงห์บุรี,สิงห์บุรี,เขต 4 สระบุรี,หน่วยบริการในระบบหลักประกันสุขภาพแห่งชาติ,รัฐในสธ.(สังกัด สป.),โรงพยาบาลทั่วไป (รพท.),917/3 หมู่ที่- ซอย- ถนนขุนสรรค์ ตำบลบางพุทรา อำเภอเมืองสิงห์บุรี จังหวัดสิงห์บุรี 16000,282,หน่วยบริการที่รับการส่งต่อทั่วไป CAPITATION,1/10/2561,-
10697-รพ.พุทธโสธร,10697,รพ.พุทธโสธร,ฉะเชิงเทรา,13.6854083,101.0696107,-,-,-,open,,16,10697,โรงพยาบาลพุทธโสธร,หน้าเมือง,เมืองฉะเชิงเทรา,ฉะเชิงเทรา,เขต 6 ระยอง,หน่วยบริการในระบบหลักประกันสุขภาพแห่งชาติ,รัฐในสธ.(สังกัด สป.),โรงพยาบาลศูนย์ (รพศ.),174 หมู่ที่- ซอย- ถนนมรุพงษ์ (เขตเทศบาลเมืองฉะเชิงเทรา) ตำบลหน้าเมือง อำเภอเมืองฉะเชิงเทรา จังหวัดฉะเชิงเทรา 24000,595,หน่วยบริการที่รับการส่งต่อทั่วไป CAPITATION,3/2/2569,-
10698-รพ.นครนายก,10698,รพ.นครนายก,นครนายก,14.20816539,101.2129766,78,78,234000,open,,17,10698,โรงพยาบาลนครนายก,นครนายก,เมืองนครนายก,นครนายก,เขต 4 สระบุรี,หน่วยบริการในระบบหลักประกันสุขภาพแห่งชาติ,รัฐในสธ.(สังกัด สป.),โรงพยาบาลทั่วไป (รพท.),100 หมู่ที่- ซอย- ถนนสุวรรณศร ตำบลนครนายก อำเภอเมืองนครนายก จังหวัดนครนายก 26000,360,หน่วยบริการที่รับการส่งต่อทั่วไป CAPITATION,1/10/2561,-
10702-รพ.ชัยภูมิ,10702,รพ.ชัยภูมิ,ชัยภูมิ,15.80622309,102.0347229,92,92,276000,open,,18,10702,โรงพยาบาลศูนย์ชัยภูมิ,ในเมือง,เมืองชัยภูมิ,ชัยภูมิ,เขต 9 นครราชสีมา,หน่วยบริการในระบบหลักประกันสุขภาพแห่งชาติ,รัฐในสธ.(สังกัด สป.),โรงพยาบาลศูนย์ (รพศ.),12 หมู่ที่05 ซอย- ถนนบรรณาการ ตำบลในเมือง อำเภอเมืองชัยภูมิ จังหวัดชัยภูมิ 36000,678,หน่วยบริการที่รับการส่งต่อทั่วไป CAPITATION,22/12/2563,-
10705-รพ.เลย,10705,รพ.เลย,เลย,17.48784518,101.7226026,75,81,243000,open,,19,10705,โรงพยาบาลทั่วไปเลย,กุดป่อง,เมืองเลย,เลย,เขต 8 อุดรธานี,หน่วยบริการในระบบหลักประกันสุขภาพแห่งชาติ,รัฐในสธ.(สังกัด สป.),โรงพยาบาลทั่วไป (รพท.),32/1 หมู่ที่- ซอย- ถนนมลิวรรณ ตำบลกุดป่อง อำเภอเมืองเลย จังหวัดเลย 42000,541,หน่วยบริการที่รับการส่งต่อทั่วไป CAPITATION,26/08/2565,-
10706-รพ.หนองคาย,10706,รพ.หนองคาย,หนองคาย,17.88164369,102.7415748,68,68,204000,open,,20,10706,โรงพยาบาลทั่วไปหนองคาย,ในเมือง,เมืองหนองคาย,หนองคาย,เขต 8 อุดรธานี,หน่วยบริการในระบบหลักประกันสุขภาพแห่งชาติ,รัฐในสธ.(สังกัด สป.),โรงพยาบาลทั่วไป (รพท.),1158 หมู่ที่03 ซอย- ถนนมีชัย ตำบลในเมือง อำเภอเมืองหนองคาย จังหวัดหนองคาย 43000,420,หน่วยบริการที่รับการส่งต่อทั่วไป CAPITATION,22/12/2563,-
10708-รพ.ร้อยเอ็ด,10708,รพ.ร้อยเอ็ด,ร้อยเอ็ด,16.04772561,103.6523877,191,198,594000,open,,21,10708,โรงพยาบาลทั่วไปร้อยเอ็ด,ในเมือง,เมืองร้อยเอ็ด,ร้อยเอ็ด,เขต 7 ขอนแก่น,หน่วยบริการในระบบหลักประกันสุขภาพแห่งชาติ,รัฐในสธ.(สังกัด สป.),โรงพยาบาลศูนย์ (รพศ.),286 หมู่ที่- ซอย- ถนนสุริยเดชบำรุง ตำบลในเมือง อำเภอเมืองร้อยเอ็ด จังหวัดร้อยเอ็ด 45000,881,หน่วยบริการที่รับการส่งต่อทั่วไป CAPITATION,1/10/2561,-
10710-รพ.สกลนคร,10710,รพ.สกลนคร,สกลนคร,17.16351255,104.1582096,32,32,96000,open,,22,10710,โรงพยาบาลสกลนคร,ธาตุเชิงชุม,เมืองสกลนคร,สกลนคร,เขต 8 อุดรธานี,หน่วยบริการในระบบหลักประกันสุขภาพแห่งชาติ,รัฐในสธ.(สังกัด สป.),โรงพยาบาลศูนย์ (รพศ.),1041 หมู่ที่- ซอย- ถนนเจริญเมือง ตำบลธาตุเชิงชุม อำเภอเมืองสกลนคร จังหวัดสกลนคร 47000,882,หน่วยบริการที่รับการส่งต่อทั่วไป CAPITATION,1/10/2561,-
10711-รพ.นครพนม,10711,รพ.นครพนม,นครพนม,17.41405138,104.7773892,109,110,330000,open,,23,10711,โรงพยาบาลทั่วไปนครพนม,ในเมือง,เมืองนครพนม,นครพนม,เขต 8 อุดรธานี,หน่วยบริการในระบบหลักประกันสุขภาพแห่งชาติ,รัฐในสธ.(สังกัด สป.),โรงพยาบาลทั่วไป (รพท.),270 หมู่ที่- ซอย- ถนนอภิบาลบัญชา ตำบลในเมือง อำเภอเมืองนครพนม จังหวัดนครพนม 48000,372,หน่วยบริการที่รับการส่งต่อทั่วไป CAPITATION,25/09/2566,-
10715-รพ.แพร่,10715,รพ.แพร่,แพร่,18.13421102,100.1543978,130,130,382098,open,,24,10715,โรงพยาบาลทั่วไปแพร่,ในเวียง,เมืองแพร่,แพร่,เขต 1 เชียงใหม่,หน่วยบริการในระบบหลักประกันสุขภาพแห่งชาติ,รัฐในสธ.(สังกัด สป.),โรงพยาบาลทั่วไป (รพท.),144 หมู่ที่- ซอย- ถนนถนนช่อแฮ ตำบลในเวียง อำเภอเมืองแพร่ จังหวัดแพร่ 54000,520,หน่วยบริการที่รับการส่งต่อทั่วไป CAPITATION,1/10/2561,-
10717-รพ.พะเยา,10717,รพ.พะเยา,พะเยา,19.1916428,99.87717302,54,54,162000,open,,25,10717,โรงพยาบาลทั่วไปพะเยา,บ้านต๋อม,เมืองพะเยา,พะเยา,เขต 1 เชียงใหม่,หน่วยบริการในระบบหลักประกันสุขภาพแห่งชาติ,รัฐในสธ.(สังกัด สป.),โรงพยาบาลทั่วไป (รพท.),269 หมู่ที่- ซอย- ถนนพหลโยธิน ตำบลบ้านต๋อม อำเภอเมืองพะเยา จังหวัดพะเยา 56000,400,หน่วยบริการที่รับการส่งต่อทั่วไป CAPITATION,25/01/2566,-
10719-รพ.ศรีสังวาลย์,10719,รพ.ศรีสังวาลย์,แม่ฮ่องสอน,19.29983532,97.97187622,48,49,147000,open,,26,10719,โรงพยาบาลทั่วไปศรีสังวาลย์,จองคำ,เมืองแม่ฮ่องสอน,แม่ฮ่องสอน,เขต 1 เชียงใหม่,หน่วยบริการในระบบหลักประกันสุขภาพแห่งชาติ,รัฐในสธ.(สังกัด สป.),โรงพยาบาลทั่วไป (รพท.),101 หมู่ที่- ซอย- ถนนสิงหนาทบำรุง ตำบลจองคำ อำเภอเมืองแม่ฮ่องสอน จังหวัดแม่ฮ่องสอน 58000,150,หน่วยบริการที่รับการส่งต่อทั่วไป CAPITATION,7/3/2565,-
10722-รพ.สมเด็จพระเจ้าตากสินมหาราช,10722,รพ.สมเด็จพระเจ้าตากสินมหาราช,ตาก,16.87311229,99.13155308,31,31,93000,open,,27,10722,โรงพยาบาลทั่วไปสมเด็จพระเจ้าตากสินมหาราช,ระแหง,เมืองตาก,ตาก,เขต 2 พิษณุโลก,หน่วยบริการในระบบหลักประกันสุขภาพแห่งชาติ,รัฐในสธ.(สังกัด สป.),โรงพยาบาลทั่วไป (รพท.),295 หมู่ที่- ซอย- ถนนพหลโยธิน ตำบลระแหง อำเภอเมืองตาก จังหวัดตาก 63000,310,หน่วยบริการที่รับการส่งต่อทั่วไป CAPITATION,1/10/2561,-
10723-รพ.แม่สอด,10723,รพ.แม่สอด,ตาก,16.70986827,98.57230982,70,70,208200,open,,28,10723,โรงพยาบาลทั่วไปแม่สอด,แม่สอด,แม่สอด,ตาก,เขต 2 พิษณุโลก,หน่วยบริการในระบบหลักประกันสุขภาพแห่งชาติ,รัฐในสธ.(สังกัด สป.),โรงพยาบาลทั่วไป (รพท.),175/16 หมู่ที่- ซอย- ถนนศรีพานิช ตำบลแม่สอด อำเภอแม่สอด จังหวัดตาก 63110,420,หน่วยบริการที่รับการส่งต่อทั่วไป CAPITATION,1/10/2561,-
10725-รพ.ศรีสังวรสุโขทัย,10725,รพ.ศรีสังวรสุโขทัย,สุโขทัย,17.16637575,99.86508727,61,67,201000,open,,29,10725,โรงพยาบาลทั่วไปศรีสังวรสุโขทัย,คลองตาล,ศรีสำโรง,สุโขทัย,เขต 2 พิษณุโลก,หน่วยบริการในระบบหลักประกันสุขภาพแห่งชาติ,รัฐในสธ.(สังกัด สป.),โรงพยาบาลทั่วไป (รพท.),1 หมู่ที่02 ซอย- ถนนจรดวิถีถ่อง ตำบลคลองตาล อำเภอศรีสำโรง จังหวัดสุโขทัย 64120,307,หน่วยบริการที่รับการส่งต่อทั่วไป CAPITATION,27/06/2566,-
10726-รพ.พิจิตร,10726,รพ.พิจิตร,พิจิตร,16.4351011,100.3447967,9,9,27000,-,,30,10726,โรงพยาบาลทั่วไปพิจิตร,ในเมือง,เมืองพิจิตร,พิจิตร,เขต 3 นครสวรรค์,หน่วยบริการในระบบหลักประกันสุขภาพแห่งชาติ,รัฐในสธ.(สังกัด สป.),โรงพยาบาลทั่วไป (รพท.),136 หมู่ที่- ซอย- ถนนบึงสีไฟ ตำบลในเมือง อำเภอเมืองพิจิตร จังหวัดพิจิตร 66000,405,หน่วยบริการที่รับการส่งต่อทั่วไป CAPITATION,1/10/2561,-
,10727,รพ.เพชรบูรณ์,เพชรบูรณ์,,,-,-,-,-,,31,10727,โรงพยาบาลทั่วไปเพชรบูรณ์,ในเมือง,เมืองเพชรบูรณ์,เพชรบูรณ์,เขต 2 พิษณุโลก,หน่วยบริการในระบบหลักประกันสุขภาพแห่งชาติ,รัฐในสธ.(สังกัด สป.),โรงพยาบาลทั่วไป (รพท.),203 หมู่ที่- ซอย- ถนนสามัคคีชัย ตำบลในเมือง อำเภอเมืองเพชรบูรณ์ จังหวัดเพชรบูรณ์ 67000,510,หน่วยบริการที่รับการส่งต่อทั่วไป CAPITATION,1/10/2561,-
10728-รพ.ดำเนินสะดวก,10728,รพ.ดำเนินสะดวก,ราชบุรี,13.53666172,99.96581008,6,6,18000,open,,32,10728,โรงพยาบาลทั่วไปดำเนินสะดวก,ท่านัด,ดำเนินสะดวก,ราชบุรี,เขต 5 ราชบุรี,หน่วยบริการในระบบหลักประกันสุขภาพแห่งชาติ,รัฐในสธ.(สังกัด สป.),โรงพยาบาลทั่วไป (รพท.),146 หมู่ที่04 ซอย- ถนนบางแพ-ดำเนินสะดวก ตำบลท่านัด อำเภอดำเนินสะดวก จังหวัดราชบุรี 70130,272,หน่วยบริการที่รับการส่งต่อทั่วไป CAPITATION,28/02/2567,-
10729-รพ.บ้านโป่ง,10729,รพ.บ้านโป่ง,ราชบุรี,13.81734565,99.87094457,16,16,48000,open,,33,10729,โรงพยาบาลทั่วไปบ้านโป่ง,บ้านโป่ง,บ้านโป่ง,ราชบุรี,เขต 5 ราชบุรี,หน่วยบริการในระบบหลักประกันสุขภาพแห่งชาติ,รัฐในสธ.(สังกัด สป.),โรงพยาบาลทั่วไป (รพท.),12 หมู่ที่- ซอย- ถนนแสงชูโต ตำบลบ้านโป่ง อำเภอบ้านโป่ง จังหวัดราชบุรี 70110,358,หน่วยบริการที่รับการส่งต่อทั่วไป CAPITATION,25/05/2564,-
10730-รพ.โพธาราม,10730,รพ.โพธาราม,ราชบุรี,13.6946,99.8517,-,-,-,open,,34,10730,โรงพยาบาลทั่วไปโพธาราม,โพธาราม,โพธาราม,ราชบุรี,เขต 5 ราชบุรี,หน่วยบริการในระบบหลักประกันสุขภาพแห่งชาติ,รัฐในสธ.(สังกัด สป.),โรงพยาบาลทั่วไป (รพท.),29 หมู่ที่- ซอย- ถนนขนานทางรถไฟ ตำบลโพธาราม อำเภอโพธาราม จังหวัดราชบุรี 70120,340,หน่วยบริการที่รับการส่งต่อทั่วไป CAPITATION,11/6/2567,-
10732-รพ.มะการักษ์,10732,รพ.มะการักษ์,กาญจนบุรี,13.90839403,99.76746364,77,77,231000,open,,35,10732,โรงพยาบาลทั่วไปมะการักษ์,ท่ามะกา,ท่ามะกา,กาญจนบุรี,เขต 5 ราชบุรี,หน่วยบริการในระบบหลักประกันสุขภาพแห่งชาติ,รัฐในสธ.(สังกัด สป.),โรงพยาบาลทั่วไป (รพท.),47/12 หมู่ที่02 ซอย- ถนนแสงชูโต ตำบลท่ามะกา อำเภอท่ามะกา จังหวัดกาญจนบุรี 71120,354,หน่วยบริการที่รับการส่งต่อทั่วไป CAPITATION,21/08/2563,-
10733-รพ.สมเด็จพระสังฆราชองค์ที่17,10733,รพ.สมเด็จพระสังฆราชองค์ที่17,สุพรรณบุรี,14.22535118,100.0279486,1,1,3000,open,,36,10733,โรงพยาบาลทั่วไปสมเด็จพระสังฆราชองค์ที่17,สองพี่น้อง,สองพี่น้อง,สุพรรณบุรี,เขต 5 ราชบุรี,หน่วยบริการในระบบหลักประกันสุขภาพแห่งชาติ,รัฐในสธ.(สังกัด สป.),โรงพยาบาลทั่วไป (รพท.),165 หมู่ที่- ซอย- ถนนบางลี่-หนองวัลย์เปรียง ตำบลสองพี่น้อง อำเภอสองพี่น้อง จังหวัดสุพรรณบุรี 72110,262,หน่วยบริการที่รับการส่งต่อทั่วไป CAPITATION,5/6/2568,-
10734-รพ.สมุทรสาคร,10734,รพ.สมุทรสาคร,สมุทรสาคร,13.55330098,100.2785913,35,35,105000,open,,37,10734,โรงพยาบาลศูนย์สมุทรสาคร,มหาชัย,เมืองสมุทรสาคร,สมุทรสาคร,เขต 5 ราชบุรี,หน่วยบริการในระบบหลักประกันสุขภาพแห่งชาติ,รัฐในสธ.(สังกัด สป.),โรงพยาบาลศูนย์ (รพศ.),1500 หมู่ที่- ซอย- ถนนเอกชัย ตำบลมหาชัย อำเภอเมืองสมุทรสาคร จังหวัดสมุทรสาคร 74000,628,หน่วยบริการที่รับการส่งต่อทั่วไป CAPITATION,13/05/2567,-
10735-รพ.สมเด็จพระพุทธเลิศหล้า,10735,รพ.สมเด็จพระพุทธเลิศหล้า,สมุทรสงคราม,13.4067,99.9981,-,-,-,open,,38,10735,โรงพยาบาลทั่วไปสมเด็จพระพุทธเลิศหล้า,แม่กลอง,เมืองสมุทรสงคราม,สมุทรสงคราม,เขต 5 ราชบุรี,หน่วยบริการในระบบหลักประกันสุขภาพแห่งชาติ,รัฐในสธ.(สังกัด สป.),โรงพยาบาลทั่วไป (รพท.),708 หมู่ที่- ซอย- ถนนประสิทธิ์พัฒนา ตำบลแม่กลอง อำเภอเมืองสมุทรสงคราม จังหวัดสมุทรสงคราม 75000,299,หน่วยบริการที่รับการส่งต่อทั่วไป CAPITATION,28/02/2567,-
10737-รพ.ประจวบคีรีขันธ์,10737,รพ.ประจวบคีรีขันธ์,ประจวบคีรีขันธ์,11.80115422,99.79581487,1,1,3000,open,,39,10737,โรงพยาบาลทั่วไปประจวบคีรีขันธ์,ประจวบคีรีขันธ์,เมืองประจวบคีรีขันธ์,ประจวบคีรีขันธ์,เขต 5 ราชบุรี,หน่วยบริการในระบบหลักประกันสุขภาพแห่งชาติ,รัฐในสธ.(สังกัด สป.),โรงพยาบาลทั่วไป (รพท.),237 หมู่ที่- ซอย- ถนนพิทักษ์ชาติ ตำบลประจวบคีรีขันธ์ อำเภอเมืองประจวบคีรีขันธ์ จังหวัดประจวบคีรีขันธ์ 77000,278,หน่วยบริการปฐมภูมิ,15/09/2567,-
,10740,,พังงา,,,-,-,-,-,,40,10740,โรงพยาบาลทั่วไปตะกั่วป่า,บางนายสี,ตะกั่วป่า,พังงา,เขต 11 สุราษฎร์ธานี,หน่วยบริการในระบบหลักประกันสุขภาพแห่งชาติ,รัฐในสธ.(สังกัด สป.),โรงพยาบาลทั่วไป (รพท.),39/2 หมู่ที่- ซอย- ถนนเพชรเกษม ตำบลบางนายสี อำเภอตะกั่วป่า จังหวัดพังงา 82110,209,หน่วยบริการที่รับการส่งต่อทั่วไป CAPITATION,7/5/2563,-
10741-รพ.วชิระภูเก็ต,10741,รพ.วชิระภูเก็ต,ภูเก็ต,7.896935053,98.38385288,228,228,684000,open,,41,10741,โรงพยาบาลศูนย์วชิระภูเก็ต,ตลาดใหญ่,เมืองภูเก็ต,ภูเก็ต,เขต 11 สุราษฎร์ธานี,หน่วยบริการในระบบหลักประกันสุขภาพแห่งชาติ,รัฐในสธ.(สังกัด สป.),โรงพยาบาลศูนย์ (รพศ.),353 หมู่ที่- ซอย- ถนนเยาวราช ตำบลตลาดใหญ่ อำเภอเมืองภูเก็ต จังหวัดภูเก็ต 83000,550,หน่วยบริการที่รับการส่งต่อทั่วไป CAPITATION,28/02/2567,-
10742-รพ.เกาะสมุย,10742,รพ.เกาะสมุย,สุราษฎร์ธานี,9.522006168,99.93543162,111,121,363000,open,,42,10742,โรงพยาบาลทั่วไปเกาะสมุย,อ่างทอง,เกาะสมุย,สุราษฎร์ธานี,เขต 11 สุราษฎร์ธานี,หน่วยบริการในระบบหลักประกันสุขภาพแห่งชาติ,รัฐในสธ.(สังกัด สป.),โรงพยาบาลทั่วไป (รพท.),60 หมู่ที่01 ซอย- ถนน- ตำบลอ่างทอง อำเภอเกาะสมุย จังหวัดสุราษฎร์ธานี 84140,158,หน่วยบริการที่รับการส่งต่อทั่วไป CAPITATION,1/10/2561,-
10744-รพ.ชุมพรเขตรอุดมศักดิ์,10744,รพ.ชุมพรเขตรอุดมศักดิ์,ชุมพร,10.49765553,99.18615118,45,45,135000,open,,43,10744,โรงพยาบาลชุมพรเขตรอุดมศักดิ์,ท่าตะเภา,เมืองชุมพร,ชุมพร,เขต 11 สุราษฎร์ธานี,หน่วยบริการในระบบหลักประกันสุขภาพแห่งชาติ,รัฐในสธ.(สังกัด สป.),โรงพยาบาลทั่วไป (รพท.),202 หมู่ที่- ซอย- ถนนพิศิษฐ์พยาบาล ตำบลท่าตะเภา อำเภอเมืองชุมพร จังหวัดชุมพร 86000,509,หน่วยบริการที่รับการส่งต่อทั่วไป CAPITATION,27/06/2566,-
10745-รพ.สงขลา,10745,รพ.สงขลา,สงขลา,7.14229784,100.5664547,56,57,171000,open,,44,10745,โรงพยาบาลทั่วไปสงขลา,พะวง,เมืองสงขลา,สงขลา,เขต 12 สงขลา,หน่วยบริการในระบบหลักประกันสุขภาพแห่งชาติ,รัฐในสธ.(สังกัด สป.),โรงพยาบาลทั่วไป (รพท.),666 หมู่ที่02 ซอย- ถนนสงขลา - ระโนด ตำบลพะวง อำเภอเมืองสงขลา จังหวัดสงขลา 90000,508,หน่วยบริการที่รับการส่งต่อทั่วไป CAPITATION,1/10/2561,-
10747-รพ.พัทลุง,10747,รพ.พัทลุง,พัทลุง,7.615041969,100.0736304,26,26,78000,open,,45,10747,โรงพยาบาลทั่วไปพัทลุง,คูหาสวรรค์,เมืองพัทลุง,พัทลุง,เขต 12 สงขลา,หน่วยบริการในระบบหลักประกันสุขภาพแห่งชาติ,รัฐในสธ.(สังกัด สป.),โรงพยาบาลทั่วไป (รพท.),42 หมู่ที่- ซอย- ถนนราเมศวร์ ตำบลคูหาสวรรค์ อำเภอเมืองพัทลุง จังหวัดพัทลุง 93000,592,หน่วยบริการที่รับการส่งต่อทั่วไป CAPITATION,12/2/2562,-
10750-รพ.นราธิวาสราชนครินทร์,10750,รพ.นราธิวาสราชนครินทร์,นราธิวาส,6.414655895,101.82387,20,20,54732,open,,46,10750,โรงพยาบาลทั่วไปนราธิวาสราชนครินทร์,บางนาค,เมืองนราธิวาส,นราธิวาส,เขต 12 สงขลา,หน่วยบริการในระบบหลักประกันสุขภาพแห่งชาติ,รัฐในสธ.(สังกัด สป.),โรงพยาบาลทั่วไป (รพท.),80 หมู่ที่- ซอย- ถนนระแงะมรรคา ตำบลบางนาค อำเภอเมืองนราธิวาส จังหวัดนราธิวาส 96000,407,หน่วยบริการที่รับการส่งต่อทั่วไป CAPITATION,10/3/2566,-
10753-รพ.บางพลี,10753,รพ.บางพลี,สมุทรปราการ,13.60404132,100.7060425,4,4,12000,open,,47,10753,โรงพยาบาลทั่วไปบางพลี,บางพลีใหญ่,บางพลี,สมุทรปราการ,เขต 6 ระยอง,หน่วยบริการในระบบหลักประกันสุขภาพแห่งชาติ,รัฐในสธ.(สังกัด สป.),โรงพยาบาลทั่วไป (รพท.),88/1 หมู่ที่08 ซอย- ถนนเทพารักษ์ ตำบลบางพลีใหญ่ อำเภอบางพลี จังหวัดสมุทรปราการ 10540,271,หน่วยบริการที่รับการส่งต่อทั่วไป CAPITATION,12/2/2562,-
,10784,รพ.ป่าโมก,อ่างทอง,,,-,-,-,-,,48,10784,โรงพยาบาลชุมชนป่าโมก,ป่าโมก,ป่าโมก,อ่างทอง,เขต 4 สระบุรี,หน่วยบริการในระบบหลักประกันสุขภาพแห่งชาติ,รัฐในสธ.(สังกัด สป.),โรงพยาบาลชุมชน (รพช.) / โรงพยาบาลยุพราช (รพร.),318/ข หมู่ที่- ซอย- ถนนเนตรสนั่นชิต ตำบลป่าโมก อำเภอป่าโมก จังหวัดอ่างทอง 14130,60,หน่วยบริการที่รับการส่งต่อทั่วไป CAPITATION,1/10/2561,-
10790-รพ.โคกสำโรง,10790,รพ.โคกสำโรง,ลพบุรี,15.06900734,100.7383963,30,30,90000,open,,49,10790,โรงพยาบาลโคกสำโรง,โคกสำโรง,โคกสำโรง,ลพบุรี,เขต 4 สระบุรี,หน่วยบริการในระบบหลักประกันสุขภาพแห่งชาติ,รัฐในสธ.(สังกัด สป.),โรงพยาบาลชุมชน (รพช.) / โรงพยาบาลยุพราช (รพร.),54/15 หมู่ที่- ซอย- ถนนสุรนารายณ์ ตำบลโคกสำโรง อำเภอโคกสำโรง จังหวัดลพบุรี 15120,120,หน่วยบริการที่รับการส่งต่อทั่วไป CAPITATION,1/5/2566,-
10832-รพ.ปลวกแดง,10832,รพ.ปลวกแดง,ระยอง,12.97000775,101.2189753,5,5,15000,open,,50,10832,โรงพยาบาลชุมชนปลวกแดง,ปลวกแดง,ปลวกแดง,ระยอง,เขต 6 ระยอง,หน่วยบริการในระบบหลักประกันสุขภาพแห่งชาติ,รัฐในสธ.(สังกัด สป.),โรงพยาบาลชุมชน (รพช.) / โรงพยาบาลยุพราช (รพร.),272 หมู่ที่01 ซอย- ถนนบำบัดโรคา ตำบลปลวกแดง อำเภอปลวกแดง จังหวัดระยอง 21140,30,หน่วยบริการประจำ,11/4/2568,-
,10853,,ฉะเชิงเทรา,,,-,-,-,-,,51,10853,โรงพยาบาลชุมชนบ้านโพธิ์,บ้านโพธิ์,บ้านโพธิ์,ฉะเชิงเทรา,เขต 6 ระยอง,หน่วยบริการในระบบหลักประกันสุขภาพแห่งชาติ,รัฐในสธ.(สังกัด สป.),โรงพยาบาลชุมชน (รพช.) / โรงพยาบาลยุพราช (รพร.),107/1 หมู่ที่01 ซอย- ถนนบ้านโพธิ์-ดอนสีนนท์ ตำบลบ้านโพธิ์ อำเภอบ้านโพธิ์ จังหวัดฉะเชิงเทรา 24140,30,หน่วยบริการที่รับการส่งต่อทั่วไป CAPITATION,1/10/2561,-
,10878,,นครราชสีมา,,,-,-,-,,,52,10878,โรงพยาบาลชุมชนโนนไทย,โนนไทย,โนนไทย,นครราชสีมา,เขต 9 นครราชสีมา,หน่วยบริการในระบบหลักประกันสุขภาพแห่งชาติ,รัฐในสธ.(สังกัด สป.),โรงพยาบาลชุมชน (รพช.) / โรงพยาบาลยุพราช (รพร.),707 หมู่ที่01 ซอย- ถนนสุรนารายณ์ ตำบลโนนไทย อำเภอโนนไทย จังหวัดนครราชสีมา 30220,60,หน่วยบริการที่รับการส่งต่อทั่วไป CAPITATION,14/10/2568,-
,10880,,นครราชสีมา,,,-,-,-,,,53,10880,โรงพยาบาลชุมชนขามสะแกแสง,ขามสะแกแสง,ขามสะแกแสง,นครราชสีมา,เขต 9 นครราชสีมา,หน่วยบริการในระบบหลักประกันสุขภาพแห่งชาติ,รัฐในสธ.(สังกัด สป.),โรงพยาบาลชุมชน (รพช.) / โรงพยาบาลยุพราช (รพร.),459 หมู่ที่13 ซอย- ถนนขามสะแกแสง-คง ตำบลขามสะแกแสง อำเภอขามสะแกแสง จังหวัดนครราชสีมา 30290,60,หน่วยบริการที่รับการส่งต่อทั่วไป CAPITATION,1/10/2561,-
10881-รพ.บัวใหญ่,10881,รพ.บัวใหญ่,นครราชสีมา,15.59559789,102.4306823,84,84,249240,open,,54,10881,โรงพยาบาลชุมชนบัวใหญ่,บัวใหญ่,บัวใหญ่,นครราชสีมา,เขต 9 นครราชสีมา,หน่วยบริการในระบบหลักประกันสุขภาพแห่งชาติ,รัฐในสธ.(สังกัด สป.),โรงพยาบาลชุมชน (รพช.) / โรงพยาบาลยุพราช (รพร.),6 หมู่ที่- ซอย- ถนนเทศบาล 12 ตำบลบัวใหญ่ อำเภอบัวใหญ่ จังหวัดนครราชสีมา 30120,124,หน่วยบริการที่รับการส่งต่อทั่วไป CAPITATION,1/10/2561,-
,10884,,นครราชสีมา,,,-,-,-,,,55,10884,โรงพยาบาลทั่วไปพิมาย,ในเมือง,พิมาย,นครราชสีมา,เขต 9 นครราชสีมา,หน่วยบริการในระบบหลักประกันสุขภาพแห่งชาติ,รัฐในสธ.(สังกัด สป.),โรงพยาบาลทั่วไป (รพท.),138 หมู่ที่01 ซอย- ถนนพิมาย-ตลาดแค ตำบลในเมือง อำเภอพิมาย จังหวัดนครราชสีมา 30110,209,หน่วยบริการที่รับการส่งต่อทั่วไป CAPITATION,1/10/2561,-
,10886,,นครราชสีมา,,,-,-,-,,,56,10886,โรงพยาบาลชุมชนชุมพวง,ชุมพวง,ชุมพวง,นครราชสีมา,เขต 9 นครราชสีมา,หน่วยบริการในระบบหลักประกันสุขภาพแห่งชาติ,รัฐในสธ.(สังกัด สป.),โรงพยาบาลชุมชน (รพช.) / โรงพยาบาลยุพราช (รพร.),- หมู่ที่01 ซอย- ถนนชุมพวง - ลำปลายมาศ ตำบลชุมพวง อำเภอชุมพวง จังหวัดนครราชสีมา 30270,75,หน่วยบริการที่รับการส่งต่อทั่วไป CAPITATION,1/10/2561,-
10889-รพ.สีคิ้ว,10889,รพ.สีคิ้ว,นครราชสีมา,14.8726301,101.7219451,1,1,3000,open,,57,10889,โรงพยาบาลชุมชนสีคิ้ว,มิตรภาพ,สีคิ้ว,นครราชสีมา,เขต 9 นครราชสีมา,หน่วยบริการในระบบหลักประกันสุขภาพแห่งชาติ,รัฐในสธ.(สังกัด สป.),โรงพยาบาลชุมชน (รพช.) / โรงพยาบาลยุพราช (รพร.),212 หมู่ที่02 ซอย- ถนนสีคิ้ว-ชัยภูมิ ตำบลมิตรภาพ อำเภอสีคิ้ว จังหวัดนครราชสีมา 30140,138,หน่วยบริการที่รับการส่งต่อทั่วไป CAPITATION,16/07/2564,-
10899-รพ.ละหานทราย,10899,รพ.ละหานทราย,บุรีรัมย์,14.4091443,102.8590867,13,13,39000,open,,58,10899,โรงพยาบาลชุมชนละหานทราย,ละหานทราย,ละหานทราย,บุรีรัมย์,เขต 9 นครราชสีมา,หน่วยบริการในระบบหลักประกันสุขภาพแห่งชาติ,รัฐในสธ.(สังกัด สป.),โรงพยาบาลชุมชน (รพช.) / โรงพยาบาลยุพราช (รพร.),55 หมู่ที่08 ซอย- ถนนนิคมเขต ตำบลละหานทราย อำเภอละหานทราย จังหวัดบุรีรัมย์ 31170,120,หน่วยบริการปฐมภูมิ,15/09/2567,-
,10905,,บุรีรัมย์,,,-,-,-,,,59,10905,โรงพยาบาลชุมชนสตึก,นิคม,สตึก,บุรีรัมย์,เขต 9 นครราชสีมา,หน่วยบริการในระบบหลักประกันสุขภาพแห่งชาติ,รัฐในสธ.(สังกัด สป.),โรงพยาบาลชุมชน (รพช.) / โรงพยาบาลยุพราช (รพร.),124/1 หมู่ที่07 ซอย- ถนนนิคมสมบูรณ์ ตำบลนิคม อำเภอสตึก จังหวัดบุรีรัมย์ 31150,135,หน่วยบริการที่รับการส่งต่อทั่วไป CAPITATION,1/10/2561,-
,10910,,บุรีรัมย์,,,-,-,-,,,60,10910,โรงพยาบาลชุมชนห้วยราช,ห้วยราชา,ห้วยราช,บุรีรัมย์,เขต 9 นครราชสีมา,หน่วยบริการในระบบหลักประกันสุขภาพแห่งชาติ,รัฐในสธ.(สังกัด สป.),โรงพยาบาลชุมชน (รพช.) / โรงพยาบาลยุพราช (รพร.),5 หมู่ที่08 ซอย- ถนนสุขาภิบาล4 ตำบลห้วยราชา อำเภอห้วยราช จังหวัดบุรีรัมย์ 31000,30,หน่วยบริการที่รับการส่งต่อทั่วไป CAPITATION,1/10/2561,-
10917-รพ.จอมพระ,10917,รพ.จอมพระ,สุรินทร์,15.11557471,103.6118138,7,7,21000,open,,61,10917,โรงพยาบาลชุมชนจอมพระ,จอมพระ,จอมพระ,สุรินทร์,เขต 9 นครราชสีมา,หน่วยบริการในระบบหลักประกันสุขภาพแห่งชาติ,รัฐในสธ.(สังกัด สป.),โรงพยาบาลชุมชน (รพช.) / โรงพยาบาลยุพราช (รพร.),19 หมู่ที่06 ซอย- ถนน- ตำบลจอมพระ อำเภอจอมพระ จังหวัดสุรินทร์ 32180,72,หน่วยบริการที่รับการส่งต่อทั่วไป CAPITATION,30/11/2565,-
,10920,,สุรินทร์,,,-,-,-,,,62,10920,โรงพยาบาลชุมชนรัตนบุรี,รัตนบุรี,รัตนบุรี,สุรินทร์,เขต 9 นครราชสีมา,หน่วยบริการในระบบหลักประกันสุขภาพแห่งชาติ,รัฐในสธ.(สังกัด สป.),โรงพยาบาลชุมชน (รพช.) / โรงพยาบาลยุพราช (รพร.),150 หมู่ที่- ซอย- ถนนรัตนบุรี-ศีขรภูมิ ตำบลรัตนบุรี อำเภอรัตนบุรี จังหวัดสุรินทร์ 32130,129,หน่วยบริการที่รับการส่งต่อทั่วไป CAPITATION,1/10/2561,-
,10921,,สุรินทร์,,,-,-,-,,,63,10921,โรงพยาบาลชุมชนสนม,สนม,สนม,สุรินทร์,เขต 9 นครราชสีมา,หน่วยบริการในระบบหลักประกันสุขภาพแห่งชาติ,รัฐในสธ.(สังกัด สป.),โรงพยาบาลชุมชน (รพช.) / โรงพยาบาลยุพราช (รพร.),- หมู่ที่03 ซอย- ถนนศรีสนม ตำบลสนม อำเภอสนม จังหวัดสุรินทร์ 32160,30,หน่วยบริการที่รับการส่งต่อทั่วไป CAPITATION,1/10/2561,-
,10970,,ชัยภูมิ,,,-,-,-,,,64,10970,โรงพยาบาลชุมชนบ้านเขว้า,บ้านเขว้า,บ้านเขว้า,ชัยภูมิ,เขต 9 นครราชสีมา,หน่วยบริการในระบบหลักประกันสุขภาพแห่งชาติ,รัฐในสธ.(สังกัด สป.),โรงพยาบาลชุมชน (รพช.) / โรงพยาบาลยุพราช (รพร.),800 หมู่ที่02 ซอย- ถนนเปรมประชาชื่น ตำบลบ้านเขว้า อำเภอบ้านเขว้า จังหวัดชัยภูมิ 36170,63,หน่วยบริการที่รับการส่งต่อทั่วไป CAPITATION,1/10/2561,-
10974-รพ.จัตุรัส,10974,รพ.จัตุรัส,ชัยภูมิ,15.57008747,101.8550216,3,4,12000,open,,65,10974,โรงพยาบาลชุมชนจัตุรัส,หนองบัวใหญ่,จัตุรัส,ชัยภูมิ,เขต 9 นครราชสีมา,หน่วยบริการในระบบหลักประกันสุขภาพแห่งชาติ,รัฐในสธ.(สังกัด สป.),โรงพยาบาลชุมชน (รพช.) / โรงพยาบาลยุพราช (รพร.),9 หมู่ที่01 ซอย- ถนนสีคิ้ว - ชัยภูมิ ตำบลหนองบัวใหญ่ อำเภอจัตุรัส จังหวัดชัยภูมิ 36130,122,หน่วยบริการประจำ,2/12/2567,-
10975-รพ.บำเหน็จณรงค์,10975,รพ.บำเหน็จณรงค์,ชัยภูมิ,15.43986775,101.6881909,54,54,159350,open,,66,10975,โรงพยาบาลชุมชนบำเหน็จณรงค์,บ้านเพชร,บำเหน็จณรงค์,ชัยภูมิ,เขต 9 นครราชสีมา,หน่วยบริการในระบบหลักประกันสุขภาพแห่งชาติ,รัฐในสธ.(สังกัด สป.),โรงพยาบาลชุมชน (รพช.) / โรงพยาบาลยุพราช (รพร.),217 หมู่ที่01 ซอย- ถนนรุ่งเรืองศรี ตำบลบ้านเพชร อำเภอบำเหน็จณรงค์ จังหวัดชัยภูมิ 36160,73,หน่วยบริการที่รับการส่งต่อทั่วไป CAPITATION,30/11/2565,-
,10977,,ชัยภูมิ,,,-,-,-,,,67,10977,โรงพยาบาลชุมชนเทพสถิต,วะตะแบก,เทพสถิต,ชัยภูมิ,เขต 9 นครราชสีมา,หน่วยบริการในระบบหลักประกันสุขภาพแห่งชาติ,รัฐในสธ.(สังกัด สป.),โรงพยาบาลชุมชน (รพช.) / โรงพยาบาลยุพราช (รพร.),864 หมู่ที่01 ซอย- ถนนสุรนารายณ์ ตำบลวะตะแบก อำเภอเทพสถิต จังหวัดชัยภูมิ 36230,45,หน่วยบริการที่รับการส่งต่อทั่วไป CAPITATION,1/10/2561,-
10980-รพ.แก้งคร้อ,10980,รพ.แก้งคร้อ,ชัยภูมิ,16.10775363,102.2584684,159,160,480000,open,,68,10980,โรงพยาบาลชุมชนแก้งคร้อ,ช่องสามหมอ,แก้งคร้อ,ชัยภูมิ,เขต 9 นครราชสีมา,หน่วยบริการในระบบหลักประกันสุขภาพแห่งชาติ,รัฐในสธ.(สังกัด สป.),โรงพยาบาลชุมชน (รพช.) / โรงพยาบาลยุพราช (รพร.),1057 หมู่ที่01 ซอย- ถนนชัยภูมิ-แก้งคร้อ ตำบลช่องสามหมอ อำเภอแก้งคร้อ จังหวัดชัยภูมิ 36150,120,หน่วยบริการที่รับการส่งต่อทั่วไป CAPITATION,1/10/2561,-
,10981,,ชัยภูมิ,,,-,-,-,,,69,10981,โรงพยาบาลชุมชนคอนสาร,ทุ่งนาเลา,คอนสาร,ชัยภูมิ,เขต 9 นครราชสีมา,หน่วยบริการในระบบหลักประกันสุขภาพแห่งชาติ,รัฐในสธ.(สังกัด สป.),โรงพยาบาลชุมชน (รพช.) / โรงพยาบาลยุพราช (รพร.),137 หมู่ที่05 ซอย- ถนนคอนสาร-ห้วยแก้ว ตำบลทุ่งนาเลา อำเภอคอนสาร จังหวัดชัยภูมิ 36180,62,หน่วยบริการที่รับการส่งต่อทั่วไป CAPITATION,1/10/2561,-
10988-รพ.เสนางคนิคม,10988,รพ.เสนางคนิคม,อำนาจเจริญ,16.04441515,104.6691107,65,65,195000,open,,70,10988,โรงพยาบาลชุมชนเสนางคนิคม,เสนางคนิคม,เสนางคนิคม,อำนาจเจริญ,เขต 10 อุบลราชธานี,หน่วยบริการในระบบหลักประกันสุขภาพแห่งชาติ,รัฐในสธ.(สังกัด สป.),โรงพยาบาลชุมชน (รพช.) / โรงพยาบาลยุพราช (รพร.),83 หมู่ที่01 ซอย- ถนน- ตำบลเสนางคนิคม อำเภอเสนางคนิคม จังหวัดอำนาจเจริญ 37290,30,หน่วยบริการที่รับการส่งต่อทั่วไป CAPITATION,6/8/2562,-
10998-รพ.ชุมแพ,10998,รพ.ชุมแพ,ขอนแก่น,16.54581012,102.0995812,48,50,150000,open,,71,10998,โรงพยาบาลทั่วไปชุมแพ,ชุมแพ,ชุมแพ,ขอนแก่น,เขต 7 ขอนแก่น,หน่วยบริการในระบบหลักประกันสุขภาพแห่งชาติ,รัฐในสธ.(สังกัด สป.),โรงพยาบาลทั่วไป (รพท.),82 หมู่ที่08 ซอย- ถนนมลิวรรณ ตำบลชุมแพ อำเภอชุมแพ จังหวัดขอนแก่น 40130,166,หน่วยบริการที่รับการส่งต่อทั่วไป CAPITATION,7/8/2567,-
11000-รพ.น้ำพอง,11000,รพ.น้ำพอง,ขอนแก่น,16.72951086,102.8007775,2,2,6000,open,,72,11000,โรงพยาบาลชุมชนน้ำพอง,น้ำพอง,น้ำพอง,ขอนแก่น,เขต 7 ขอนแก่น,หน่วยบริการในระบบหลักประกันสุขภาพแห่งชาติ,รัฐในสธ.(สังกัด สป.),โรงพยาบาลชุมชน (รพช.) / โรงพยาบาลยุพราช (รพร.),122/2 หมู่ที่02 ซอย- ถนนมิตรภาพ ตำบลน้ำพอง อำเภอน้ำพอง จังหวัดขอนแก่น 40140,60,หน่วยบริการที่รับการส่งต่อทั่วไป CAPITATION,1/10/2561,-
11002-รพ.บ้านไผ่,11002,รพ.บ้านไผ่,ขอนแก่น,16.10467059,102.7440066,69,77,231000,open,,73,11002,โรงพยาบาลชุมชนบ้านไผ่,ในเมือง,บ้านไผ่,ขอนแก่น,เขต 7 ขอนแก่น,หน่วยบริการในระบบหลักประกันสุขภาพแห่งชาติ,รัฐในสธ.(สังกัด สป.),โรงพยาบาลชุมชน (รพช.) / โรงพยาบาลยุพราช (รพร.),718 หมู่ที่03 ซอย- ถนนแจ้งสนิท ตำบลในเมือง อำเภอบ้านไผ่ จังหวัดขอนแก่น 40110,110,หน่วยบริการที่รับการส่งต่อทั่วไป CAPITATION,11/6/2564,-
11015-รพ.กุมภวาปี,11015,รพ.กุมภวาปี,อุดรธานี,17.10485442,103.020962,4,4,12000,open,,74,11015,โรงพยาบาลทั่วไปกุมภวาปี,กุมภวาปี,กุมภวาปี,อุดรธานี,เขต 8 อุดรธานี,หน่วยบริการในระบบหลักประกันสุขภาพแห่งชาติ,รัฐในสธ.(สังกัด สป.),โรงพยาบาลทั่วไป (รพท.),7 หมู่ที่05 ซอย- ถนนจิตรประสงค์ ตำบลกุมภวาปี อำเภอกุมภวาปี จังหวัดอุดรธานี 41110,234,หน่วยบริการที่รับการส่งต่อทั่วไป CAPITATION,1/10/2561,-
,11018,,อุดรธานี,,,-,-,-,-,,75,11018,โรงพยาบาลชุมชนหนองหาน,หนองหาน,หนองหาน,อุดรธานี,เขต 8 อุดรธานี,หน่วยบริการในระบบหลักประกันสุขภาพแห่งชาติ,รัฐในสธ.(สังกัด สป.),โรงพยาบาลชุมชน (รพช.) / โรงพยาบาลยุพราช (รพร.),458 หมู่ที่06 ซอย- ถนนนิตโย ตำบลหนองหาน อำเภอหนองหาน จังหวัดอุดรธานี 41130,120,หน่วยบริการที่รับการส่งต่อทั่วไป CAPITATION,1/10/2561,-
11031-รพ.เชียงคาน,11031,รพ.เชียงคาน,เลย,17.89582555,101.663048,4,4,12000,open,,76,11031,โรงพยาบาลชุมชนเชียงคาน,เชียงคาน,เชียงคาน,เลย,เขต 8 อุดรธานี,หน่วยบริการในระบบหลักประกันสุขภาพแห่งชาติ,รัฐในสธ.(สังกัด สป.),โรงพยาบาลชุมชน (รพช.) / โรงพยาบาลยุพราช (รพร.),427 หมู่ที่02 ซอย- ถนนเชียงคาน-ปากชม ตำบลเชียงคาน อำเภอเชียงคาน จังหวัดเลย 42110,73,หน่วยบริการที่รับการส่งต่อทั่วไป CAPITATION,31/07/2568,-
11036-รพ.วังสะพุง,11036,รพ.วังสะพุง,เลย,17.28188656,101.7576872,30,30,90000,open,,77,11036,โรงพยาบาลชุมชนวังสะพุง,วังสะพุง,วังสะพุง,เลย,เขต 8 อุดรธานี,หน่วยบริการในระบบหลักประกันสุขภาพแห่งชาติ,รัฐในสธ.(สังกัด สป.),โรงพยาบาลชุมชน (รพช.) / โรงพยาบาลยุพราช (รพร.),116 หมู่ที่03 ซอย- ถนนวังสะพุง-ภูหลวง ตำบลวังสะพุง อำเภอวังสะพุง จังหวัดเลย 42130,113,หน่วยบริการที่รับการส่งต่อทั่วไป CAPITATION,3/10/2565,-
,11037,,เลย,,,-,-,-,-,,78,11037,โรงพยาบาลภูกระดึง,ภูกระดึง,ภูกระดึง,เลย,เขต 8 อุดรธานี,หน่วยบริการในระบบหลักประกันสุขภาพแห่งชาติ,รัฐในสธ.(สังกัด สป.),โรงพยาบาลชุมชน (รพช.) / โรงพยาบาลยุพราช (รพร.),149 หมู่ที่08 ซอย- ถนนราชวิถี ตำบลภูกระดึง อำเภอภูกระดึง จังหวัดเลย 42180,30,หน่วยบริการที่รับการส่งต่อทั่วไป CAPITATION,1/10/2561,-
11042-รพ.โพนพิสัย,11042,รพ.โพนพิสัย,หนองคาย,18.0493,103.0869,-,-,-,open,,79,11042,โรงพยาบาลชุมชนโพนพิสัย,จุมพล,โพนพิสัย,หนองคาย,เขต 8 อุดรธานี,หน่วยบริการในระบบหลักประกันสุขภาพแห่งชาติ,รัฐในสธ.(สังกัด สป.),โรงพยาบาลชุมชน (รพช.) / โรงพยาบาลยุพราช (รพร.),77 หมู่ที่03 ซอย- ถนนโพนพิสัย - บึงกาฬ ตำบลจุมพล อำเภอโพนพิสัย จังหวัดหนองคาย 43120,113,หน่วยบริการที่รับการส่งต่อทั่วไป CAPITATION,22/12/2563,-
11046-รพ.เซกา,11046,รพ.เซกา,บึงกาฬ,17.9367,103.956,-,-,-,open,,80,11046,โรงพยาบาลชุมชนเซกา,เซกา,เซกา,บึงกาฬ,เขต 8 อุดรธานี,หน่วยบริการในระบบหลักประกันสุขภาพแห่งชาติ,รัฐในสธ.(สังกัด สป.),โรงพยาบาลชุมชน (รพช.) / โรงพยาบาลยุพราช (รพร.),62 หมู่ที่01 ซอย- ถนนเซกา -นาแสง ตำบลเซกา อำเภอเซกา จังหวัดบึงกาฬ 38150,120,หน่วยบริการที่รับการส่งต่อทั่วไป CAPITATION,28/03/2565,-
11052-รพ.โกสุมพิสัย,11052,รพ.โกสุมพิสัย,มหาสารคาม,16.24069589,103.0670357,26,26,78000,open,,81,11052,โรงพยาบาลชุมชนโกสุมพิสัย,หัวขวาง,โกสุมพิสัย,มหาสารคาม,เขต 7 ขอนแก่น,หน่วยบริการในระบบหลักประกันสุขภาพแห่งชาติ,รัฐในสธ.(สังกัด สป.),โรงพยาบาลชุมชน (รพช.) / โรงพยาบาลยุพราช (รพร.),256 หมู่ที่13 ซอย- ถนนศรีโกสุม ตำบลหัวขวาง อำเภอโกสุมพิสัย จังหวัดมหาสารคาม 44140,120,หน่วยบริการประจำ,9/9/2567,-
,11055,,มหาสารคาม,,,-,-,-,-,,82,11055,โรงพยาบาลชุมชนบรบือ,บรบือ,บรบือ,มหาสารคาม,เขต 7 ขอนแก่น,หน่วยบริการในระบบหลักประกันสุขภาพแห่งชาติ,รัฐในสธ.(สังกัด สป.),โรงพยาบาลชุมชน (รพช.) / โรงพยาบาลยุพราช (รพร.),151 หมู่ที่01 ซอย- ถนนแจ้งสนิท ตำบลบรบือ อำเภอบรบือ จังหวัดมหาสารคาม 44130,120,หน่วยบริการประจำ,2/12/2568,-
11061-รพ.เกษตรวิสัย,11061,รพ.เกษตรวิสัย,ร้อยเอ็ด,15.65026829,103.5786861,31,31,93000,open,,83,11061,โรงพยาบาลชุมชนเกษตรวิสัย,เกษตรวิสัย,เกษตรวิสัย,ร้อยเอ็ด,เขต 7 ขอนแก่น,หน่วยบริการในระบบหลักประกันสุขภาพแห่งชาติ,รัฐในสธ.(สังกัด สป.),โรงพยาบาลชุมชน (รพช.) / โรงพยาบาลยุพราช (รพร.),2 หมู่ที่10 ซอย- ถนนหน้าโรงพยาบาล ตำบลเกษตรวิสัย อำเภอเกษตรวิสัย จังหวัดร้อยเอ็ด 45150,96,หน่วยบริการที่รับการส่งต่อทั่วไป CAPITATION,6/2/2567,-
11065-รพ.พนมไพร,11065,รพ.พนมไพร,ร้อยเอ็ด,15.67896418,104.1031481,29,29,87000,open,,84,11065,โรงพยาบาลชุมชนพนมไพร,พนมไพร,พนมไพร,ร้อยเอ็ด,เขต 7 ขอนแก่น,หน่วยบริการในระบบหลักประกันสุขภาพแห่งชาติ,รัฐในสธ.(สังกัด สป.),โรงพยาบาลชุมชน (รพช.) / โรงพยาบาลยุพราช (รพร.),170 หมู่ที่03 ซอย- ถนนโชติเสถียร ตำบลพนมไพร อำเภอพนมไพร จังหวัดร้อยเอ็ด 45140,30,หน่วยบริการที่รับการส่งต่อทั่วไป CAPITATION,1/10/2561,-
11066-รพ.โพนทอง,11066,รพ.โพนทอง,ร้อยเอ็ด,16.29417777,103.9704466,59,59,177000,open,,85,11066,โรงพยาบาลชุมชนโพนทอง,สระนกแก้ว,โพนทอง,ร้อยเอ็ด,เขต 7 ขอนแก่น,หน่วยบริการในระบบหลักประกันสุขภาพแห่งชาติ,รัฐในสธ.(สังกัด สป.),โรงพยาบาลชุมชน (รพช.) / โรงพยาบาลยุพราช (รพร.),196 หมู่ที่10 ซอย- ถนนร้อยเอ็ด-โพนทอง ตำบลสระนกแก้ว อำเภอโพนทอง จังหวัดร้อยเอ็ด 45110,213,หน่วยบริการที่รับการส่งต่อทั่วไป CAPITATION,8/1/2567,-
11069-รพ.เสลภูมิ,11069,รพ.เสลภูมิ,ร้อยเอ็ด,16.03083245,103.9415133,19,19,57000,open,,86,11069,โรงพยาบาลชุมชนเสลภูมิ,ขวัญเมือง,เสลภูมิ,ร้อยเอ็ด,เขต 7 ขอนแก่น,หน่วยบริการในระบบหลักประกันสุขภาพแห่งชาติ,รัฐในสธ.(สังกัด สป.),โรงพยาบาลชุมชน (รพช.) / โรงพยาบาลยุพราช (รพร.),279 หมู่ที่07 ซอย- ถนนแจ้งสนิท ตำบลขวัญเมือง อำเภอเสลภูมิ จังหวัดร้อยเอ็ด 45120,60,หน่วยบริการที่รับการส่งต่อทั่วไป CAPITATION,15/08/2564,-
,11078,,กาฬสินธุ์,,,-,-,-,-,,87,11078,โรงพยาบาลชุมชนกมลาไสย,กมลาไสย,กมลาไสย,กาฬสินธุ์,เขต 7 ขอนแก่น,หน่วยบริการในระบบหลักประกันสุขภาพแห่งชาติ,รัฐในสธ.(สังกัด สป.),โรงพยาบาลชุมชน (รพช.) / โรงพยาบาลยุพราช (รพร.),111 หมู่ที่11 ซอย- ถนนมหาสารคาม-กมลาไสย ตำบลกมลาไสย อำเภอกมลาไสย จังหวัดกาฬสินธุ์ 46130,146,หน่วยบริการประจำ,19/01/2569,-
,11084,,กาฬสินธุ์,,,-,-,-,-,,88,11084,โรงพยาบาลชุมชนคำม่วง,ทุ่งคลอง,คำม่วง,กาฬสินธุ์,เขต 7 ขอนแก่น,หน่วยบริการในระบบหลักประกันสุขภาพแห่งชาติ,รัฐในสธ.(สังกัด สป.),โรงพยาบาลชุมชน (รพช.) / โรงพยาบาลยุพราช (รพร.),92 หมู่ที่10 ซอย- ถนนสมประสงค์ ตำบลทุ่งคลอง อำเภอคำม่วง จังหวัดกาฬสินธุ์ 46180,30,หน่วยบริการที่รับการส่งต่อทั่วไป CAPITATION,1/10/2561,-
11087-รพ.สมเด็จ,11087,รพ.สมเด็จ,กาฬสินธุ์,16.83349004,103.7360148,22,22,63000,open,,89,11087,โรงพยาบาลชุมชนสมเด็จ,สมเด็จ,สมเด็จ,กาฬสินธุ์,เขต 7 ขอนแก่น,หน่วยบริการในระบบหลักประกันสุขภาพแห่งชาติ,รัฐในสธ.(สังกัด สป.),โรงพยาบาลชุมชน (รพช.) / โรงพยาบาลยุพราช (รพร.),389 หมู่ที่02 ซอย- ถนนถีนานนท์ ตำบลสมเด็จ อำเภอสมเด็จ จังหวัดกาฬสินธุ์ 46150,138,หน่วยบริการปฐมภูมิ,15/09/2567,-
,11088,,กาฬสินธุ์,,,-,-,-,-,,90,11088,โรงพยาบาลชุมชนห้วยผึ้ง,นิคมห้วยผึ้ง,ห้วยผึ้ง,กาฬสินธุ์,เขต 7 ขอนแก่น,หน่วยบริการในระบบหลักประกันสุขภาพแห่งชาติ,รัฐในสธ.(สังกัด สป.),โรงพยาบาลชุมชน (รพช.) / โรงพยาบาลยุพราช (รพร.),177 หมู่ที่08 ซอย- ถนนห้วยผึ้ง-นาคู ตำบลนิคมห้วยผึ้ง อำเภอห้วยผึ้ง จังหวัดกาฬสินธุ์ 46240,30,หน่วยบริการที่รับการส่งต่อทั่วไป CAPITATION,1/10/2561,-
11095-รพ.วานรนิวาส,11095,รพ.วานรนิวาส,สกลนคร,17.62451136,103.7493353,234,237,705000,open,,91,11095,โรงพยาบาลทั่วไปวานรนิวาส,คอนสวรรค์,วานรนิวาส,สกลนคร,เขต 8 อุดรธานี,หน่วยบริการในระบบหลักประกันสุขภาพแห่งชาติ,รัฐในสธ.(สังกัด สป.),โรงพยาบาลทั่วไป (รพท.),1 หมู่ที่09 ซอย- ถนนเดื่อเจริญ ตำบลคอนสวรรค์ อำเภอวานรนิวาส จังหวัดสกลนคร 47120,246,หน่วยบริการที่รับการส่งต่อทั่วไป CAPITATION,6/8/2565,-
11097-รพ.พระอาจารย์มั่น ภูริทัตโต,11097,รพ.พระอาจารย์มั่น ภูริทัตโต,สกลนคร,17.85027108,103.5698808,78,78,230515,open,,92,11097,โรงพยาบาลชุมชนพระอาจารย์มั่น ภูริทัตโต,ม่วง,บ้านม่วง,สกลนคร,เขต 8 อุดรธานี,หน่วยบริการในระบบหลักประกันสุขภาพแห่งชาติ,รัฐในสธ.(สังกัด สป.),โรงพยาบาลชุมชน (รพช.) / โรงพยาบาลยุพราช (รพร.),299 หมู่ที่02 ซอย- ถนน- ตำบลม่วง อำเภอบ้านม่วง จังหวัดสกลนคร 47140,78,หน่วยบริการที่รับการส่งต่อทั่วไป CAPITATION,1/10/2561,-
11117-รพ.หว้านใหญ่,11117,รพ.หว้านใหญ่,มุกดาหาร,16.72834273,104.7131402,6,6,18000,open,,93,11117,โรงพยาบาลชุมชนหว้านใหญ่,หว้านใหญ่,หว้านใหญ่,มุกดาหาร,เขต 10 อุบลราชธานี,หน่วยบริการในระบบหลักประกันสุขภาพแห่งชาติ,รัฐในสธ.(สังกัด สป.),โรงพยาบาลชุมชน (รพช.) / โรงพยาบาลยุพราช (รพร.),45 หมู่ที่09 ซอย- ถนน- ตำบลหว้านใหญ่ อำเภอหว้านใหญ่ จังหวัดมุกดาหาร 49150,30,หน่วยบริการที่รับการส่งต่อทั่วไป CAPITATION,1/5/2566,-
,11121,,เชียงใหม่,,,-,-,-,-,,94,11121,โรงพยาบาลชุมชนเชียงดาว,เชียงดาว,เชียงดาว,เชียงใหม่,เขต 1 เชียงใหม่,หน่วยบริการในระบบหลักประกันสุขภาพแห่งชาติ,รัฐในสธ.(สังกัด สป.),โรงพยาบาลชุมชน (รพช.) / โรงพยาบาลยุพราช (รพร.),285 หมู่ที่02 ซอย- ถนนโชตนา ตำบลเชียงดาว อำเภอเชียงดาว จังหวัดเชียงใหม่ 50170,90,หน่วยบริการที่รับการส่งต่อทั่วไป CAPITATION,22/12/2563,-
,11158,,อุตรดิตถ์,,,-,-,-,-,,95,11158,โรงพยาบาลชุมชนตรอน,บ้านแก่ง,ตรอน,อุตรดิตถ์,เขต 2 พิษณุโลก,หน่วยบริการในระบบหลักประกันสุขภาพแห่งชาติ,รัฐในสธ.(สังกัด สป.),โรงพยาบาลชุมชน (รพช.) / โรงพยาบาลยุพราช (รพร.),252 หมู่ที่02 ซอย- ถนนสายพิชัย-บ้านแก่ง ตำบลบ้านแก่ง อำเภอตรอน จังหวัดอุตรดิตถ์ 53140,30,หน่วยบริการที่รับการส่งต่อทั่วไป CAPITATION,1/10/2561,-
11162-รพ.บ้านโคก,11162,รพ.บ้านโคก,อุตรดิตถ์,18.02763881,101.0726574,109,109,324000,open,,96,11162,โรงพยาบาลชุมชนบ้านโคก,บ้านโคก,บ้านโคก,อุตรดิตถ์,เขต 2 พิษณุโลก,หน่วยบริการในระบบหลักประกันสุขภาพแห่งชาติ,รัฐในสธ.(สังกัด สป.),โรงพยาบาลชุมชน (รพช.) / โรงพยาบาลยุพราช (รพร.),232 หมู่ที่03 ซอย- ถนน- ตำบลบ้านโคก อำเภอบ้านโคก จังหวัดอุตรดิตถ์ 53180,30,หน่วยบริการที่รับการส่งต่อทั่วไป CAPITATION,1/10/2561,-
,11175,,น่าน,,,-,-,-,-,,97,11175,โรงพยาบาลชุมชนนาน้อย,ศรีษะเกษ,นาน้อย,น่าน,เขต 1 เชียงใหม่,หน่วยบริการในระบบหลักประกันสุขภาพแห่งชาติ,รัฐในสธ.(สังกัด สป.),โรงพยาบาลชุมชน (รพช.) / โรงพยาบาลยุพราช (รพร.),110 หมู่ที่06 ซอย- ถนนเจ้าฟ้า ตำบลศรีษะเกษ อำเภอนาน้อย จังหวัดน่าน 55150,30,หน่วยบริการที่รับการส่งต่อทั่วไป CAPITATION,1/10/2561,-
,11176,,น่าน,,,-,-,-,-,,98,11176,โรงพยาบาลชุมชนท่าวังผา,ท่าวังผา,ท่าวังผา,น่าน,เขต 1 เชียงใหม่,หน่วยบริการในระบบหลักประกันสุขภาพแห่งชาติ,รัฐในสธ.(สังกัด สป.),โรงพยาบาลชุมชน (รพช.) / โรงพยาบาลยุพราช (รพร.),84 หมู่ที่06 ซอย- ถนนน่าน-ทุ่งช้าง ตำบลท่าวังผา อำเภอท่าวังผา จังหวัดน่าน 55140,30,หน่วยบริการที่รับการส่งต่อทั่วไป CAPITATION,1/10/2561,-
,11177,,น่าน,,,-,-,-,-,,99,11177,โรงพยาบาลชุมชนเวียงสา,กลางเวียง,เวียงสา,น่าน,เขต 1 เชียงใหม่,หน่วยบริการในระบบหลักประกันสุขภาพแห่งชาติ,รัฐในสธ.(สังกัด สป.),โรงพยาบาลชุมชน (รพช.) / โรงพยาบาลยุพราช (รพร.),131 หมู่ที่11 ซอย- ถนน- ตำบลกลางเวียง อำเภอเวียงสา จังหวัดน่าน 55110,60,หน่วยบริการที่รับการส่งต่อทั่วไป CAPITATION,1/10/2561,-
,11178,,น่าน,,,-,-,-,-,,100,11178,โรงพยาบาลชุมชนทุ่งช้าง,ทุ่งช้าง,ทุ่งช้าง,น่าน,เขต 1 เชียงใหม่,หน่วยบริการในระบบหลักประกันสุขภาพแห่งชาติ,รัฐในสธ.(สังกัด สป.),โรงพยาบาลชุมชน (รพช.) / โรงพยาบาลยุพราช (รพร.),1 หมู่ที่02 ซอย- ถนนน่าน - ทุ่งช้าง ตำบลทุ่งช้าง อำเภอทุ่งช้าง จังหวัดน่าน 55130,30,หน่วยบริการที่รับการส่งต่อทั่วไป CAPITATION,1/10/2561,-
,11181,,น่าน,,,-,-,-,-,,101,11181,โรงพยาบาลชุมชนสันติสุข,ดู่พงษ์,สันติสุข,น่าน,เขต 1 เชียงใหม่,หน่วยบริการในระบบหลักประกันสุขภาพแห่งชาติ,รัฐในสธ.(สังกัด สป.),โรงพยาบาลชุมชน (รพช.) / โรงพยาบาลยุพราช (รพร.),205 หมู่ที่04 ซอย- ถนน- ตำบลดู่พงษ์ อำเภอสันติสุข จังหวัดน่าน 55210,30,หน่วยบริการที่รับการส่งต่อทั่วไป CAPITATION,1/10/2561,-
,11183,,น่าน,,,-,-,-,-,,102,11183,โรงพยาบาลชุมชนสองแคว,นาไร่หลวง,สองแคว,น่าน,เขต 1 เชียงใหม่,หน่วยบริการในระบบหลักประกันสุขภาพแห่งชาติ,รัฐในสธ.(สังกัด สป.),โรงพยาบาลชุมชน (รพช.) / โรงพยาบาลยุพราช (รพร.),99 หมู่ที่02 ซอย- ถนนท่าวังผา-เชียงคำ ตำบลนาไร่หลวง อำเภอสองแคว จังหวัดน่าน 55160,30,หน่วยบริการที่รับการส่งต่อทั่วไป CAPITATION,1/10/2561,-
11190-รพ.พาน,11190,รพ.พาน,เชียงราย,19.52158083,99.74432284,21,21,63000,open,,103,11190,โรงพยาบาลชุมชนพาน,ม่วงคำ,พาน,เชียงราย,เขต 1 เชียงใหม่,หน่วยบริการในระบบหลักประกันสุขภาพแห่งชาติ,รัฐในสธ.(สังกัด สป.),โรงพยาบาลชุมชน (รพช.) / โรงพยาบาลยุพราช (รพร.),516 หมู่ที่01 ซอย- ถนนเอเชีย ตำบลม่วงคำ อำเภอพาน จังหวัดเชียงราย 57120,120,หน่วยบริการที่รับการส่งต่อทั่วไป CAPITATION,24/01/2564,-
,11205,,แม่ฮ่องสอน,,,-,-,-,-,,104,11205,โรงพยาบาลชุมชนแม่สะเรียง,แม่สะเรียง,แม่สะเรียง,แม่ฮ่องสอน,เขต 1 เชียงใหม่,หน่วยบริการในระบบหลักประกันสุขภาพแห่งชาติ,รัฐในสธ.(สังกัด สป.),โรงพยาบาลชุมชน (รพช.) / โรงพยาบาลยุพราช (รพร.),74 หมู่ที่01 ซอย- ถนนเวียงใหม่ ตำบลแม่สะเรียง อำเภอแม่สะเรียง จังหวัดแม่ฮ่องสอน 58110,107,หน่วยบริการที่รับการส่งต่อทั่วไป CAPITATION,5/6/2568,-
11212-รพ.บรรพตพิสัย,11212,รพ.บรรพตพิสัย,นครสวรรค์,15.94714416,99.98023301,516,528,1581000,open,,105,11212,โรงพยาบาลชุมชนบรรพตพิสัย,เจริญผล,บรรพตพิสัย,นครสวรรค์,เขต 3 นครสวรรค์,หน่วยบริการในระบบหลักประกันสุขภาพแห่งชาติ,รัฐในสธ.(สังกัด สป.),โรงพยาบาลชุมชน (รพช.) / โรงพยาบาลยุพราช (รพร.),700 หมู่ที่02 ซอย- ถนนบรรพตพิสัย - โพทะเล ตำบลเจริญผล อำเภอบรรพตพิสัย จังหวัดนครสวรรค์ 60180,90,หน่วยบริการที่รับการส่งต่อทั่วไป CAPITATION,1/10/2561,-
11240-รพ.แม่ระมาด,11240,รพ.แม่ระมาด,ตาก,16.99081385,98.52713205,1,1,3000,open,,106,11240,โรงพยาบาลชุมชนแม่ระมาด,แม่ระมาด,แม่ระมาด,ตาก,เขต 2 พิษณุโลก,หน่วยบริการในระบบหลักประกันสุขภาพแห่งชาติ,รัฐในสธ.(สังกัด สป.),โรงพยาบาลชุมชน (รพช.) / โรงพยาบาลยุพราช (รพร.),251 หมู่ที่04 ซอย- ถนน- ตำบลแม่ระมาด อำเภอแม่ระมาด จังหวัดตาก 63140,60,หน่วยบริการที่รับการส่งต่อทั่วไป CAPITATION,1/10/2561,-
11241-รพ.ท่าสองยาง,11241,รพ.ท่าสองยาง,ตาก,17.23002698,98.2262925,11,11,33000,open,,107,11241,โรงพยาบาลชุมชนท่าสองยาง,แม่ต้าน,ท่าสองยาง,ตาก,เขต 2 พิษณุโลก,หน่วยบริการในระบบหลักประกันสุขภาพแห่งชาติ,รัฐในสธ.(สังกัด สป.),โรงพยาบาลชุมชน (รพช.) / โรงพยาบาลยุพราช (รพร.),357 หมู่ที่02 ซอย- ถนน- ตำบลแม่ต้าน อำเภอท่าสองยาง จังหวัดตาก 63150,60,หน่วยบริการที่รับการส่งต่อทั่วไป CAPITATION,1/5/2566,-
11242-รพ.พบพระ,11242,รพ.พบพระ,ตาก,16.40132411,98.69550285,10,10,30000,open,,108,11242,โรงพยาบาลชุมชนพบพระ,พบพระ,พบพระ,ตาก,เขต 2 พิษณุโลก,หน่วยบริการในระบบหลักประกันสุขภาพแห่งชาติ,รัฐในสธ.(สังกัด สป.),โรงพยาบาลชุมชน (รพช.) / โรงพยาบาลยุพราช (รพร.),245 หมู่ที่02 ซอย- ถนน- ตำบลพบพระ อำเภอพบพระ จังหวัดตาก 63160,85,หน่วยบริการที่รับการส่งต่อทั่วไป CAPITATION,25/09/2566,-
,11243,,ตาก,,,-,-,-,-,,109,11243,โรงพยาบาลชุมชนอุ้มผาง,อุ้มผาง,อุ้มผาง,ตาก,เขต 2 พิษณุโลก,หน่วยบริการในระบบหลักประกันสุขภาพแห่งชาติ,รัฐในสธ.(สังกัด สป.),โรงพยาบาลชุมชน (รพช.) / โรงพยาบาลยุพราช (รพร.),159 ม.1 หมู่ที่01 ซอย- ถนนประเวชไพรวัล ตำบลอุ้มผาง อำเภออุ้มผาง จังหวัดตาก 63170,64,หน่วยบริการที่รับการส่งต่อทั่วไป CAPITATION,1/10/2561,-
11268-รพ.หนองไผ่,11268,รพ.หนองไผ่,เพชรบูรณ์,15.99210312,101.0630906,127,135,399000,open,,110,11268,โรงพยาบาลชุมชนหนองไผ่,หนองไผ่,หนองไผ่,เพชรบูรณ์,เขต 2 พิษณุโลก,หน่วยบริการในระบบหลักประกันสุขภาพแห่งชาติ,รัฐในสธ.(สังกัด สป.),โรงพยาบาลชุมชน (รพช.) / โรงพยาบาลยุพราช (รพร.),655 หมู่ที่06 ซอย- ถนนสระบุรี-หล่มสัก ตำบลหนองไผ่ อำเภอหนองไผ่ จังหวัดเพชรบูรณ์ 67140,60,หน่วยบริการที่รับการส่งต่อทั่วไป CAPITATION,8/3/2566,-
,11292,,สุพรรณบุรี,,,-,-,-,-,,111,11292,โรงพยาบาลชุมชนศรีประจันต์,วังน้ำซับ,ศรีประจันต์,สุพรรณบุรี,เขต 5 ราชบุรี,หน่วยบริการในระบบหลักประกันสุขภาพแห่งชาติ,รัฐในสธ.(สังกัด สป.),โรงพยาบาลชุมชน (รพช.) / โรงพยาบาลยุพราช (รพร.),218 หมู่ที่01 ซอย- ถนนสุพรรณ - ชัยนาท ตำบลวังน้ำซับ อำเภอศรีประจันต์ จังหวัดสุพรรณบุรี 72140,60,หน่วยบริการที่รับการส่งต่อทั่วไป CAPITATION,1/10/2561,-
,11295,,สุพรรณบุรี,,,-,-,-,-,,112,11295,โรงพยาบาลชุมชนอู่ทอง,จรเข้สามพัน,อู่ทอง,สุพรรณบุรี,เขต 5 ราชบุรี,หน่วยบริการในระบบหลักประกันสุขภาพแห่งชาติ,รัฐในสธ.(สังกัด สป.),โรงพยาบาลชุมชน (รพช.) / โรงพยาบาลยุพราช (รพร.),220 หมู่ที่15 ซอย- ถนนมาลัยแมน ตำบลจรเข้สามพัน อำเภออู่ทอง จังหวัดสุพรรณบุรี 72160,150,หน่วยบริการที่รับการส่งต่อทั่วไป CAPITATION,1/10/2561,-
11304-รพ.กระทุ่มแบน,11304,รพ.กระทุ่มแบน,สมุทรสาคร,13.65453709,100.2550425,12,12,36000,open,,113,11304,โรงพยาบาลกระทุ่มแบน,ตลาดกระทุ่มแบน,กระทุ่มแบน,สมุทรสาคร,เขต 5 ราชบุรี,หน่วยบริการในระบบหลักประกันสุขภาพแห่งชาติ,รัฐในสธ.(สังกัด สป.),โรงพยาบาลทั่วไป (รพท.),450/4 หมู่ที่- ซอย- ถนนเศรษฐกิจ ตำบลตลาดกระทุ่มแบน อำเภอกระทุ่มแบน จังหวัดสมุทรสาคร 74110,120,หน่วยบริการที่รับการส่งต่อทั่วไป CAPITATION,25/09/2566,-
,11308,,เพชรบุรี,,,-,-,-,-,,114,11308,โรงพยาบาลชุมชนเขาย้อย,เขาย้อย,เขาย้อย,เพชรบุรี,เขต 5 ราชบุรี,หน่วยบริการในระบบหลักประกันสุขภาพแห่งชาติ,รัฐในสธ.(สังกัด สป.),โรงพยาบาลชุมชน (รพช.) / โรงพยาบาลยุพราช (รพร.),136/2 หมู่ที่05 ซอย- ถนนสุวรรณดำริ ตำบลเขาย้อย อำเภอเขาย้อย จังหวัดเพชรบุรี 76140,30,หน่วยบริการที่รับการส่งต่อทั่วไป CAPITATION,1/10/2561,-
,11311,,เพชรบุรี,,,-,-,-,-,,115,11311,โรงพยาบาลชุมชนท่ายาง,ท่ายาง,ท่ายาง,เพชรบุรี,เขต 5 ราชบุรี,หน่วยบริการในระบบหลักประกันสุขภาพแห่งชาติ,รัฐในสธ.(สังกัด สป.),โรงพยาบาลชุมชน (รพช.) / โรงพยาบาลยุพราช (รพร.),259/6 หมู่ที่01 ซอย- ถนนโรงพยาบาล ตำบลท่ายาง อำเภอท่ายาง จังหวัดเพชรบุรี 76130,74,หน่วยบริการที่รับการส่งต่อทั่วไป CAPITATION,1/10/2561,-
,11312,,เพชรบุรี,,,-,-,-,-,,116,11312,โรงพยาบาลชุมชนบ้านลาด,ท่าช้าง,บ้านลาด,เพชรบุรี,เขต 5 ราชบุรี,หน่วยบริการในระบบหลักประกันสุขภาพแห่งชาติ,รัฐในสธ.(สังกัด สป.),โรงพยาบาลชุมชน (รพช.) / โรงพยาบาลยุพราช (รพร.),131 หมู่ที่08 ซอย- ถนน- ตำบลท่าช้าง อำเภอบ้านลาด จังหวัดเพชรบุรี 76150,30,หน่วยบริการที่รับการส่งต่อทั่วไป CAPITATION,1/10/2561,-
11317-รพ.บางสะพาน,11317,รพ.บางสะพาน,ประจวบคีรีขันธ์,11.22400699,99.49669461,4,4,12000,open,,117,11317,โรงพยาบาลทั่วไปบางสะพาน,กำเนิดนพคุณ,บางสะพาน,ประจวบคีรีขันธ์,เขต 5 ราชบุรี,หน่วยบริการในระบบหลักประกันสุขภาพแห่งชาติ,รัฐในสธ.(สังกัด สป.),โรงพยาบาลทั่วไป (รพท.),93 หมู่ที่05 ซอย- ถนน- ตำบลกำเนิดนพคุณ อำเภอบางสะพาน จังหวัดประจวบคีรีขันธ์ 77140,156,หน่วยบริการที่รับการส่งต่อทั่วไป CAPITATION,7/5/2563,-
,11320,,ประจวบคีรีขันธ์,,,-,-,-,-,,118,11320,โรงพยาบาลทั่วไปหัวหิน,หัวหิน,หัวหิน,ประจวบคีรีขันธ์,เขต 5 ราชบุรี,หน่วยบริการในระบบหลักประกันสุขภาพแห่งชาติ,รัฐในสธ.(สังกัด สป.),โรงพยาบาลทั่วไป (รพท.),30/2 หมู่ที่- ซอย- ถนนเพชรเกษม ตำบลหัวหิน อำเภอหัวหิน จังหวัดประจวบคีรีขันธ์ 77110,340,หน่วยบริการที่รับการส่งต่อทั่วไป CAPITATION,1/10/2561,-
11325-รพร.ฉวาง,11325,รพร.ฉวาง,นครศรีธรรมราช,8.446642203,99.53331411,79,79,237000,open,,119,11325,โรงพยาบาลสมเด็จพระยุพราชฉวาง,ไสหร้า,ฉวาง,นครศรีธรรมราช,เขต 11 สุราษฎร์ธานี,หน่วยบริการในระบบหลักประกันสุขภาพแห่งชาติ,รัฐในสธ.(สังกัด สป.),โรงพยาบาลชุมชน (รพช.) / โรงพยาบาลยุพราช (รพร.),20 หมู่ที่08 ซอย- ถนนนครศรีธรรมราช-บ้านส้อง ตำบลไสหร้า อำเภอฉวาง จังหวัดนครศรีธรรมราช 80150,120,หน่วยบริการที่รับการส่งต่อทั่วไป CAPITATION,6/8/2562,-
11328-รพ.ชะอวด,11328,รพ.ชะอวด,นครศรีธรรมราช,7.981429591,99.99159069,45,46,138000,open,,120,11328,โรงพยาบาลชุมชนชะอวด,ชะอวด,ชะอวด,นครศรีธรรมราช,เขต 11 สุราษฎร์ธานี,หน่วยบริการในระบบหลักประกันสุขภาพแห่งชาติ,รัฐในสธ.(สังกัด สป.),โรงพยาบาลชุมชน (รพช.) / โรงพยาบาลยุพราช (รพร.),23 หมู่ที่08 ซอย- ถนนชะอวด-บ่อล้อ ตำบลชะอวด อำเภอชะอวด จังหวัดนครศรีธรรมราช 80180,60,หน่วยบริการที่รับการส่งต่อทั่วไป CAPITATION,1/5/2566,-
11330-รพ.ทุ่งสง,11330,รพ.ทุ่งสง,นครศรีธรรมราช,8.162537473,99.68073805,151,151,453000,open,,121,11330,โรงพยาบาลทั่วไปทุ่งสง,ปากแพรก,ทุ่งสง,นครศรีธรรมราช,เขต 11 สุราษฎร์ธานี,หน่วยบริการในระบบหลักประกันสุขภาพแห่งชาติ,รัฐในสธ.(สังกัด สป.),โรงพยาบาลทั่วไป (รพท.),277 หมู่ที่- ซอย- ถนนถ.ชัยชุมพล ตำบลปากแพรก อำเภอทุ่งสง จังหวัดนครศรีธรรมราช 80110,324,หน่วยบริการที่รับการส่งต่อทั่วไป CAPITATION,1/10/2561,-
11332-รพ.ทุ่งใหญ่,11332,รพ.ทุ่งใหญ่,นครศรีธรรมราช,8.315466648,99.36331706,24,24,72000,open,,122,11332,โรงพยาบาลชุมชนทุ่งใหญ่,ท่ายาง,ทุ่งใหญ่,นครศรีธรรมราช,เขต 11 สุราษฎร์ธานี,หน่วยบริการในระบบหลักประกันสุขภาพแห่งชาติ,รัฐในสธ.(สังกัด สป.),โรงพยาบาลชุมชน (รพช.) / โรงพยาบาลยุพราช (รพร.),599 หมู่ที่02 ซอย- ถนนทุ่งใหญ่ - พระแสง ตำบลท่ายาง อำเภอทุ่งใหญ่ จังหวัดนครศรีธรรมราช 80240,60,หน่วยบริการที่รับการส่งต่อทั่วไป CAPITATION,3/8/2566,-
11333-รพ.ปากพนัง,11333,รพ.ปากพนัง,นครศรีธรรมราช,8.35869973,100.1975743,3,3,9000,open,,123,11333,โรงพยาบาลชุมชนปากพนัง,ปากพนังฝั่งตะวันออก,ปากพนัง,นครศรีธรรมราช,เขต 11 สุราษฎร์ธานี,หน่วยบริการในระบบหลักประกันสุขภาพแห่งชาติ,รัฐในสธ.(สังกัด สป.),โรงพยาบาลชุมชน (รพช.) / โรงพยาบาลยุพราช (รพร.),212 หมู่ที่- ซอย- ถนนชายน้ำ ตำบลปากพนังฝั่งตะวันออก อำเภอปากพนัง จังหวัดนครศรีธรรมราช 80140,105,หน่วยบริการที่รับการส่งต่อทั่วไป CAPITATION,29/07/2564,-
11334-รพ.ร่อนพิบูลย์,11334,รพ.ร่อนพิบูลย์,นครศรีธรรมราช,8.174301309,99.86195518,40,40,120000,open,,124,11334,โรงพยาบาลชุมชนร่อนพิบูลย์,ร่อนพิบูลย์,ร่อนพิบูลย์,นครศรีธรรมราช,เขต 11 สุราษฎร์ธานี,หน่วยบริการในระบบหลักประกันสุขภาพแห่งชาติ,รัฐในสธ.(สังกัด สป.),โรงพยาบาลชุมชน (รพช.) / โรงพยาบาลยุพราช (รพร.),812 หมู่ที่13 ซอย- ถนนร่อนพิบูลย์ - เขาชุมทอง ตำบลร่อนพิบูลย์ อำเภอร่อนพิบูลย์ จังหวัดนครศรีธรรมราช 80130,80,หน่วยบริการที่รับการส่งต่อทั่วไป CAPITATION,25/08/2565,-
11335-รพ.สิชล,11335,รพ.สิชล,นครศรีธรรมราช,9.008047149,99.90307872,15,16,48000,open,,125,11335,โรงพยาบาลทั่วไปสิชล,สิชล,สิชล,นครศรีธรรมราช,เขต 11 สุราษฎร์ธานี,หน่วยบริการในระบบหลักประกันสุขภาพแห่งชาติ,รัฐในสธ.(สังกัด สป.),โรงพยาบาลทั่วไป (รพท.),189 หมู่ที่05 ซอย- ถนนศุภโยคพัฒนา ตำบลสิชล อำเภอสิชล จังหวัดนครศรีธรรมราช 80120,218,หน่วยบริการที่รับการส่งต่อทั่วไป CAPITATION,25/09/2566,-
11357-รพ.กาญจนดิษฐ์,11357,รพ.กาญจนดิษฐ์,สุราษฎร์ธานี,9.161593819,99.49286647,27,27,81000,open,,126,11357,โรงพยาบาลชุมชนกาญจนดิษฐ์,พลายวาส,กาญจนดิษฐ์,สุราษฎร์ธานี,เขต 11 สุราษฎร์ธานี,หน่วยบริการในระบบหลักประกันสุขภาพแห่งชาติ,รัฐในสธ.(สังกัด สป.),โรงพยาบาลชุมชน (รพช.) / โรงพยาบาลยุพราช (รพร.),776 หมู่ที่09 ซอย- ถนนสุราษฎร์ - นครศรีธรรมราช ตำบลพลายวาส อำเภอกาญจนดิษฐ์ จังหวัดสุราษฎร์ธานี 84160,171,หน่วยบริการที่รับการส่งต่อทั่วไป CAPITATION,1/5/2566,-
11360-รพ.ไชยา,11360,รพ.ไชยา,สุราษฎร์ธานี,9.385929,99.2068824,-,-,-,open,,127,11360,โรงพยาบาลชุมชนไชยา,ตลาดไชยา,ไชยา,สุราษฎร์ธานี,เขต 11 สุราษฎร์ธานี,หน่วยบริการในระบบหลักประกันสุขภาพแห่งชาติ,รัฐในสธ.(สังกัด สป.),โรงพยาบาลชุมชน (รพช.) / โรงพยาบาลยุพราช (รพร.),380/2 หมู่ที่01 ซอย- ถนนรักษ์นรกิจ ตำบลตลาดไชยา อำเภอไชยา จังหวัดสุราษฎร์ธานี 84110,60,หน่วยบริการที่รับการส่งต่อทั่วไป CAPITATION,22/12/2563,-
11366-รพ.บ้านนาสาร,11366,รพ.บ้านนาสาร,สุราษฎร์ธานี,8.84212841,99.36783064,509,520,1560000,open,,128,11366,โรงพยาบาลชุมชนบ้านนาสาร,นาสาร,บ้านนาสาร,สุราษฎร์ธานี,เขต 11 สุราษฎร์ธานี,หน่วยบริการในระบบหลักประกันสุขภาพแห่งชาติ,รัฐในสธ.(สังกัด สป.),โรงพยาบาลชุมชน (รพช.) / โรงพยาบาลยุพราช (รพร.),83/4 หมู่ที่- ซอย- ถนนคลองหา ตำบลนาสาร อำเภอบ้านนาสาร จังหวัดสุราษฎร์ธานี 84120,65,หน่วยบริการที่รับการส่งต่อทั่วไป CAPITATION,21/08/2563,-
11379-รพ.หลังสวน,11379,รพ.หลังสวน,ชุมพร,9.983383352,99.0671137,105,105,315000,open,,129,11379,โรงพยาบาลชุมชนหลังสวน,วังตะกอ,หลังสวน,ชุมพร,เขต 11 สุราษฎร์ธานี,หน่วยบริการในระบบหลักประกันสุขภาพแห่งชาติ,รัฐในสธ.(สังกัด สป.),โรงพยาบาลชุมชน (รพช.) / โรงพยาบาลยุพราช (รพร.),82 หมู่ที่05 ซอย- ถนนเอเชีย 18 (ทางหลวงแผ่นดิน หมายเลข 41) ตำบลวังตะกอ อำเภอหลังสวน จังหวัดชุมพร 86110,154,หน่วยบริการที่รับการส่งต่อทั่วไป CAPITATION,1/10/2561,-
,11386,,สงขลา,,,-,-,-,-,,130,11386,โรงพยาบาลชุมชนสทิงพระ,จะทิ้งพระ,สทิงพระ,สงขลา,เขต 12 สงขลา,หน่วยบริการในระบบหลักประกันสุขภาพแห่งชาติ,รัฐในสธ.(สังกัด สป.),โรงพยาบาลชุมชน (รพช.) / โรงพยาบาลยุพราช (รพร.),96 หมู่ที่01 ซอย- ถนนสงขลา-ระโนด ตำบลจะทิ้งพระ อำเภอสทิงพระ จังหวัดสงขลา 90190,30,หน่วยบริการที่รับการส่งต่อทั่วไป CAPITATION,1/10/2561,-
,11391,,สงขลา,,,-,-,-,-,,131,11391,โรงพยาบาลชุมชนสะบ้าย้อย,สะบ้าย้อย,สะบ้าย้อย,สงขลา,เขต 12 สงขลา,หน่วยบริการในระบบหลักประกันสุขภาพแห่งชาติ,รัฐในสธ.(สังกัด สป.),โรงพยาบาลชุมชน (รพช.) / โรงพยาบาลยุพราช (รพร.),2/17 หมู่ที่01 ซอย- ถนนสะบ้าย้อบ -ลำไพล ตำบลสะบ้าย้อย อำเภอสะบ้าย้อย จังหวัดสงขลา 90210,30,หน่วยบริการที่รับการส่งต่อทั่วไป CAPITATION,1/10/2561,-
11403-รพ.ควนกาหลง,11403,รพ.ควนกาหลง,สตูล,6.865842572,99.97399875,142,143,429000,open,,132,11403,โรงพยาบาลชุมชนควนกาหลง,ควนกาหลง,ควนกาหลง,สตูล,เขต 12 สงขลา,หน่วยบริการในระบบหลักประกันสุขภาพแห่งชาติ,รัฐในสธ.(สังกัด สป.),โรงพยาบาลชุมชน (รพช.) / โรงพยาบาลยุพราช (รพร.),90 หมู่ที่- ซอย- ถนนประชาสงเคราะห์ ตำบลควนกาหลง อำเภอควนกาหลง จังหวัดสตูล 91130,37,หน่วยบริการที่รับการส่งต่อทั่วไป CAPITATION,12/2/2562,-
11437-รพ.ระแงะ,11437,รพ.ระแงะ,นราธิวาส,6.297473876,101.7271966,16,16,48000,open,,133,11437,โรงพยาบาลชุมชนระแงะ,ตันหยงมัส,ระแงะ,นราธิวาส,เขต 12 สงขลา,หน่วยบริการในระบบหลักประกันสุขภาพแห่งชาติ,รัฐในสธ.(สังกัด สป.),โรงพยาบาลชุมชน (รพช.) / โรงพยาบาลยุพราช (รพร.),86 หมู่ที่01 ซอย- ถนนระแงะมรรคา ตำบลตันหยงมัส อำเภอระแงะ จังหวัดนราธิวาส 96130,130,หน่วยบริการที่รับการส่งต่อทั่วไป CAPITATION,3/8/2566,-
,11440,,นราธิวาส,,,-,-,-,-,,134,11440,โรงพยาบาลชุมชนแว้ง,แว้ง,แว้ง,นราธิวาส,เขต 12 สงขลา,หน่วยบริการในระบบหลักประกันสุขภาพแห่งชาติ,รัฐในสธ.(สังกัด สป.),โรงพยาบาลชุมชน (รพช.) / โรงพยาบาลยุพราช (รพร.),263 หมู่ที่07 ซอย- ถนนสุไหงโกลก-แว้ง ตำบลแว้ง อำเภอแว้ง จังหวัดนราธิวาส 96160,30,หน่วยบริการที่รับการส่งต่อทั่วไป CAPITATION,12/2/2562,-
,11441,,นราธิวาส,,,-,-,-,-,,135,11441,โรงพยาบาลชุมชนสุคิริน,มาโมง,สุคิริน,นราธิวาส,เขต 12 สงขลา,หน่วยบริการในระบบหลักประกันสุขภาพแห่งชาติ,รัฐในสธ.(สังกัด สป.),โรงพยาบาลชุมชน (รพช.) / โรงพยาบาลยุพราช (รพร.),58 หมู่ที่06 ซอย- ถนนสายเอก ตำบลมาโมง อำเภอสุคิริน จังหวัดนราธิวาส 96190,35,หน่วยบริการที่รับการส่งต่อทั่วไป CAPITATION,1/10/2561,-
11447-รพร.ด่านซ้าย,11447,รพร.ด่านซ้าย,เลย,17.27482021,101.1584454,11,11,33000,open,,136,11447,โรงพยาบาลสมเด็จพระยุพราชด่านซ้าย,ด่านซ้าย,ด่านซ้าย,เลย,เขต 8 อุดรธานี,หน่วยบริการในระบบหลักประกันสุขภาพแห่งชาติ,รัฐในสธ.(สังกัด สป.),โรงพยาบาลชุมชน (รพช.) / โรงพยาบาลยุพราช (รพร.),168 หมู่ที่03 ซอย- ถนนเลย-ด่านซ้าย ตำบลด่านซ้าย อำเภอด่านซ้าย จังหวัดเลย 42120,60,หน่วยบริการที่รับการส่งต่อทั่วไป CAPITATION,21/08/2563,-
11448-รพร.ท่าบ่อ,11448,รพร.ท่าบ่อ,หนองคาย,17.8478,102.5762,-,-,-,open,,137,11448,โรงพยาบาลสมเด็จพระยุพราชท่าบ่อ,ท่าบ่อ,ท่าบ่อ,หนองคาย,เขต 8 อุดรธานี,หน่วยบริการในระบบหลักประกันสุขภาพแห่งชาติ,รัฐในสธ.(สังกัด สป.),โรงพยาบาลทั่วไป (รพท.),161 หมู่ที่13 ซอย- ถนนมิตรภาพ ตำบลท่าบ่อ อำเภอท่าบ่อ จังหวัดหนองคาย 43110,266,หน่วยบริการที่รับการส่งต่อทั่วไป CAPITATION,25/01/2564,-
11449-รพร.กุฉินารายณ์,11449,รพร.กุฉินารายณ์,กาฬสินธุ์,16.53007262,104.0415533,48,48,141000,open,,138,11449,โรงพยาบาลสมเด็จพระยุพราชกุฉินารายณ์,บัวขาว,กุฉินารายณ์,กาฬสินธุ์,เขต 7 ขอนแก่น,หน่วยบริการในระบบหลักประกันสุขภาพแห่งชาติ,รัฐในสธ.(สังกัด สป.),โรงพยาบาลชุมชน (รพช.) / โรงพยาบาลยุพราช (รพร.),193 หมู่ที่13 ซอย- ถนนบัวขาว-นามน ตำบลบัวขาว อำเภอกุฉินารายณ์ จังหวัดกาฬสินธุ์ 46110,90,หน่วยบริการที่รับการส่งต่อทั่วไป CAPITATION,7/5/2563,-
11450-รพร.สว่างแดนดิน,11450,รพร.สว่างแดนดิน,สกลนคร,17.47742419,103.4579086,67,67,198000,open,,139,11450,โรงพยาบาลสมเด็จพระยุพราชสว่างแดนดิน,สว่างแดนดิน,สว่างแดนดิน,สกลนคร,เขต 8 อุดรธานี,หน่วยบริการในระบบหลักประกันสุขภาพแห่งชาติ,รัฐในสธ.(สังกัด สป.),โรงพยาบาลทั่วไป (รพท.),291 หมู่ที่11 ซอย- ถนนภูมิภักดี ตำบลสว่างแดนดิน อำเภอสว่างแดนดิน จังหวัดสกลนคร 47110,301,หน่วยบริการที่รับการส่งต่อทั่วไป CAPITATION,1/10/2561,-
11451-รพร.ธาตุพนม,11451,รพร.ธาตุพนม,นครพนม,16.9368,104.7123,-,-,-,open,,140,11451,โรงพยาบาลสมเด็จพระยุพราชธาตุพนม,ธาตุพนม,ธาตุพนม,นครพนม,เขต 8 อุดรธานี,หน่วยบริการในระบบหลักประกันสุขภาพแห่งชาติ,รัฐในสธ.(สังกัด สป.),โรงพยาบาลชุมชน (รพช.) / โรงพยาบาลยุพราช (รพร.),121 หมู่ที่07 ซอย- ถนนชยางกูร ตำบลธาตุพนม อำเภอธาตุพนม จังหวัดนครพนม 48110,120,หน่วยบริการที่รับการส่งต่อทั่วไป CAPITATION,29/10/2568,-
,11452,,แพร่,,,-,-,-,-,,141,11452,โรงพยาบาลสมเด็จพระยุพราชเด่นชัย,เด่นชัย,เด่นชัย,แพร่,เขต 1 เชียงใหม่,หน่วยบริการในระบบหลักประกันสุขภาพแห่งชาติ,รัฐในสธ.(สังกัด สป.),โรงพยาบาลชุมชน (รพช.) / โรงพยาบาลยุพราช (รพร.),545 หมู่ที่09 ซอย- ถนนยันตรกิจโกศล ตำบลเด่นชัย อำเภอเด่นชัย จังหวัดแพร่ 54110,41,หน่วยบริการที่รับการส่งต่อทั่วไป CAPITATION,1/10/2561,-
11459-รพร.เวียงสระ,11459,รพร.เวียงสระ,สุราษฎร์ธานี,8.637623984,99.37134922,34,34,102000,open,,142,11459,โรงพยาบาลสมเด็จพระยุพราชเวียงสระ,บ้านส้อง,เวียงสระ,สุราษฎร์ธานี,เขต 11 สุราษฎร์ธานี,หน่วยบริการในระบบหลักประกันสุขภาพแห่งชาติ,รัฐในสธ.(สังกัด สป.),โรงพยาบาลชุมชน (รพช.) / โรงพยาบาลยุพราช (รพร.),204/16 หมู่ที่10 ซอย- ถนน- ตำบลบ้านส้อง อำเภอเวียงสระ จังหวัดสุราษฎร์ธานี 84190,120,หน่วยบริการที่รับการส่งต่อทั่วไป CAPITATION,7/8/2567,-
11472-รพ.ราชวิถี,11472,รพ.ราชวิถี,กรุงเทพมหานคร,13.763825,100.533413,-,-,-,open,,143,11472,โรงพยาบาลราชวิถี,ทุ่งพญาไท,เขตราชเทวี,กรุงเทพฯ,เขต 13 กรุงเทพมหานคร,หน่วยบริการในระบบหลักประกันสุขภาพแห่งชาติ,รัฐในสธ.(นอก สป.),สังกัดกรมการแพทย์,2 หมู่ที่- ซอย- ถนนพญาไท แขวงทุ่งพญาไท เขตราชเทวี กรุงเทพมหานคร 10400,909,หน่วยบริการที่รับการส่งต่อทั่วไป CAPITATION,1/10/2561,-
11478-รพ.สมเด็จพระปิ่นเกล้า,11478,รพ.สมเด็จพระปิ่นเกล้า,กรุงเทพมหานคร,13.71025429,100.4868152,1,1,3000,open,,144,11478,โรงพยาบาลสมเด็จพระปิ่นเกล้า,บุคคโล,เขตธนบุรี,กรุงเทพฯ,เขต 13 กรุงเทพมหานคร,หน่วยบริการในระบบหลักประกันสุขภาพแห่งชาติ,รัฐนอก สธ.,สังกัดกระทรวงกลาโหม,504 หมู่ที่- ซอย- ถนนตากสิน แขวงบุคคโล เขตธนบุรี กรุงเทพมหานคร 10600,507,หน่วยบริการที่รับการส่งต่อทั่วไป CAPITATION,1/10/2561,-
11481-รพ.พระมงกุฎเกล้า,11481,รพ.พระมงกุฎเกล้า,กรุงเทพมหานคร,13.76777167,100.5343875,1,1,3000,open,,145,11481,โรงพยาบาลพระมงกุฎเกล้า,ทุ่งพญาไท,เขตราชเทวี,กรุงเทพฯ,เขต 13 กรุงเทพมหานคร,หน่วยบริการในระบบหลักประกันสุขภาพแห่งชาติ,รัฐนอก สธ.,สังกัดกระทรวงกลาโหม,315 หมู่ที่- ซอย- ถนนราชวิถี แขวงทุ่งพญาไท เขตราชเทวี กรุงเทพมหานคร 10400,1236,หน่วยบริการที่รับการส่งต่อทั่วไป CAPITATION,1/10/2561,-
,11482,,กรุงเทพมหานคร,,,-,-,-,-,,146,11482,โรงพยาบาลภูมิพลอดุลยเดช,คลองถนน,เขตสายไหม,กรุงเทพฯ,เขต 13 กรุงเทพมหานคร,หน่วยบริการในระบบหลักประกันสุขภาพแห่งชาติ,รัฐนอก สธ.,สังกัดกระทรวงกลาโหม,171 หมู่ที่- ซอย- ถนนพหลโยธิน แขวงคลองถนน เขตสายไหม กรุงเทพมหานคร 10220,774,หน่วยบริการที่รับการส่งต่อทั่วไป CAPITATION,1/10/2561,-
,11517,,พิษณุโลก,,,-,-,-,-,,147,11517,โรงพยาบาลค่ายสมเด็จพระนเรศวร,บ้านคลอง,เมืองพิษณุโลก,พิษณุโลก,เขต 2 พิษณุโลก,หน่วยบริการในระบบหลักประกันสุขภาพแห่งชาติ,รัฐนอก สธ.,สังกัดกระทรวงกลาโหม,9 หมู่ที่- ซอย- ถนน- ตำบลบ้านคลอง อำเภอเมืองพิษณุโลก จังหวัดพิษณุโลก 65000,150,หน่วยบริการประจำ,21/01/2568,-
,11523,,นครศรีธรรมราช,,,-,-,-,-,,148,11523,โรงพยาบาลค่ายวชิราวุธ,ปากพูน,เมืองนครศรีธรรมราช,นครศรีธรรมราช,เขต 11 สุราษฎร์ธานี,หน่วยบริการในระบบหลักประกันสุขภาพแห่งชาติ,รัฐนอก สธ.,สังกัดกระทรวงกลาโหม,283 หมู่ที่- ซอย- ถนนราชดำเนิน ตำบลปากพูน อำเภอเมืองนครศรีธรรมราช จังหวัดนครศรีธรรมราช 80000,150,หน่วยบริการที่รับการส่งต่อทั่วไป CAPITATION,6/8/2562,-
,11536,,กรุงเทพมหานคร,,,-,-,-,-,,149,11536,โรงพยาบาลเวชการุณย์รัศมิ์,กระทุ่มราย,เขตหนองจอก,กรุงเทพฯ,เขต 13 กรุงเทพมหานคร,หน่วยบริการในระบบหลักประกันสุขภาพแห่งชาติ,รัฐนอก สธ.,สังกัดกรุงเทพมหานคร,48 หมู่ที่02 ซอย- ถนนเลียบวารี แขวงกระทุ่มราย เขตหนองจอก กรุงเทพมหานคร 10530,30,หน่วยบริการที่รับการส่งต่อทั่วไป CAPITATION,6/2/2567,-
11537-รพ.กลาง,11537,รพ.กลาง,กรุงเทพมหานคร,13.74661884,100.50925,7,7,21000,open,,150,11537,โรงพยาบาลกลาง,วัดเทพศิรินทร์,เขตป้อมปราบศัตรูพ่าย,กรุงเทพฯ,เขต 13 กรุงเทพมหานคร,หน่วยบริการในระบบหลักประกันสุขภาพแห่งชาติ,รัฐนอก สธ.,สังกัดกรุงเทพมหานคร,514 หมู่ที่- ซอย- ถนนหลวง แขวงวัดเทพศิรินทร์ เขตป้อมปราบศัตรูพ่าย กรุงเทพมหานคร 10100,408,หน่วยบริการที่รับการส่งต่อทั่วไป CAPITATION,25/09/2566,-
11539-รพ.ตากสิน,11539,รพ.ตากสิน,กรุงเทพมหานคร,13.73061098,100.5086009,4,4,12000,open,,151,11539,โรงพยาบาลตากสิน,คลองสาน,เขตคลองสาน,กรุงเทพฯ,เขต 13 กรุงเทพมหานคร,หน่วยบริการในระบบหลักประกันสุขภาพแห่งชาติ,รัฐนอก สธ.,สังกัดกรุงเทพมหานคร,543 หมู่ที่- ซอย- ถนนสมเด็จเจ้าพระยา แขวงคลองสาน เขตคลองสาน กรุงเทพมหานคร 10600,393,หน่วยบริการที่รับการส่งต่อทั่วไป CAPITATION,8/11/2566,-
11540-รพ.หลวงพ่อทวีศักดิ์ ชุตินฺธโร อุทิศ,11540,รพ.หลวงพ่อทวีศักดิ์ ชุตินฺธโร อุทิศ,กรุงเทพมหานคร,13.65610517,100.3452035,4,4,12000,open,,152,11540,โรงพยาบาลหลวงพ่อทวีศักดิ์ ชุตินฺธโร อุทิศ,หนองแขม,เขตหนองแขม,กรุงเทพฯ,เขต 13 กรุงเทพมหานคร,หน่วยบริการในระบบหลักประกันสุขภาพแห่งชาติ,รัฐนอก สธ.,สังกัดกรุงเทพมหานคร,39 หมู่ที่- ซอย- ถนนเพชรเกษม 81 แขวงหนองแขม เขตหนองแขม กรุงเทพมหานคร 10160,60,หน่วยบริการที่รับการส่งต่อทั่วไป CAPITATION,8/11/2566,-
11626-รพ.คลองตัน โรงพยาบาลทั่วไปขนาดเล็ก,11626,รพ.คลองตัน โรงพยาบาลทั่วไปขนาดเล็ก,กรุงเทพมหานคร,13.74217326,100.5945131,948,948,2844000,open,,153,11626,โรงพยาบาลคลองตัน โรงพยาบาลทั่วไปขนาดเล็ก,บางกะปิ,เขตห้วยขวาง,กรุงเทพฯ,เขต 13 กรุงเทพมหานคร,หน่วยบริการในระบบหลักประกันสุขภาพแห่งชาติ,เอกชน,โรงพยาบาล (เอกชน),3284 หมู่ที่- ซอย- ถนนเพชรบุรีตัดใหม่ แขวงบางกะปิ เขตห้วยขวาง กรุงเทพมหานคร 10320,30,หน่วยบริการที่รับการส่งต่อเฉพาะด้านสร้างเสริมสุขภาพและป้องกันโรค,9/8/2568,-
,11722,,กรุงเทพมหานคร,,,-,-,-,-,,154,11722,โรงพยาบาลทั่วไปขนาดใหญ่ โรงพยาบาลมงกุฎวัฒนะ,ทุ่งสองห้อง,เขตหลักสี่,กรุงเทพฯ,เขต 13 กรุงเทพมหานคร,หน่วยบริการในระบบหลักประกันสุขภาพแห่งชาติ,เอกชน,โรงพยาบาล (เอกชน),34/40 หมู่ที่01 ซอย- ถนนแจ้งวัฒนะ แขวงทุ่งสองห้อง เขตหลักสี่ กรุงเทพมหานคร 10210,100,หน่วยบริการที่รับการส่งต่อทั่วไป CAPITATION,13/05/2567,-
11799-รพ.การุญเวช ปทุมธานี โรงพยาบาลทั่วไปขนาดใหญ่,11799,รพ.การุญเวช ปทุมธานี โรงพยาบาลทั่วไปขนาดใหญ่,ปทุมธานี,14.11739907,100.6178781,35,35,105000,open,,155,11799,โรงพยาบาลการุญเวช ปทุมธานี โรงพยาบาลทั่วไปขนาดใหญ่,คลองหนึ่ง,คลองหลวง,ปทุมธานี,เขต 4 สระบุรี,หน่วยบริการในระบบหลักประกันสุขภาพแห่งชาติ,เอกชน,โรงพยาบาล (เอกชน),98 หมู่ที่10 ซอย- ถนน- ตำบลคลองหนึ่ง อำเภอคลองหลวง จังหวัดปทุมธานี 12120,200,หน่วยบริการที่รับการส่งต่อเฉพาะด้านสร้างเสริมสุขภาพและป้องกันโรค,4/1/2566,-
,11885,,นครราชสีมา,,,-,-,-,,,156,11885,โรงพยาบาลเดอะโกลเดนเกท,ในเมือง,เมืองนครราชสีมา,นครราชสีมา,เขต 9 นครราชสีมา,หน่วยบริการในระบบหลักประกันสุขภาพแห่งชาติ,เอกชน,โรงพยาบาล (เอกชน),34 หมู่ที่- ซอย- ถนนมหาดไทย ตำบลในเมือง อำเภอเมืองนครราชสีมา จังหวัดนครราชสีมา 30280,60,หน่วยบริการที่รับการส่งต่อทั่วไป CAPITATION,1/10/2561,-
11968-รพ.รักษ์สกล,11968,รพ.รักษ์สกล,สกลนคร,17.16235949,104.1451181,-,-,-,open,,157,11968,โรงพยาบาลรักษ์สกล,ธาตุเชิงชุม,เมืองสกลนคร,สกลนคร,เขต 8 อุดรธานี,หน่วยบริการในระบบหลักประกันสุขภาพแห่งชาติ,เอกชน,โรงพยาบาล (เอกชน),1446/47 หมู่ที่- ซอย- ถนนรอบเมือง ตำบลธาตุเชิงชุม อำเภอเมืองสกลนคร จังหวัดสกลนคร 47000,50,หน่วยบริการที่รับการส่งต่อเฉพาะด้านเวชกรรม,8/11/2566,-
12034-รพ.พริ้นซ์ ปากน้ำโพ 2 โรงพยาบาลทั่วไปขนาดใหญ่,12034,รพ.พริ้นซ์ ปากน้ำโพ 2 โรงพยาบาลทั่วไปขนาดใหญ่,นครสวรรค์,15.7077,100.139,-,-,-,open,,158,12034,โรงพยาบาลพริ้นซ์ ปากน้ำโพ 2 โรงพยาบาลทั่วไปขนาดใหญ่,ปากน้ำโพ,เมืองนครสวรรค์,นครสวรรค์,เขต 3 นครสวรรค์,หน่วยบริการในระบบหลักประกันสุขภาพแห่งชาติ,เอกชน,โรงพยาบาล (เอกชน),62 หมู่ที่- ซอย- ถนนอรรถกวี ตำบลปากน้ำโพ อำเภอเมืองนครสวรรค์ จังหวัดนครสวรรค์ 60000,100,หน่วยบริการที่รับการส่งต่อเฉพาะด้านสร้างเสริมสุขภาพและป้องกันโรค,9/9/2567,-
12139-มหาชัยโรงพยาบาลทั่วไปขนาดใหญ่,12139,มหาชัยโรงพยาบาลทั่วไปขนาดใหญ่,สมุทรสาคร,13.5568,100.2723,-,-,-,open,,159,12139,มหาชัยโรงพยาบาลทั่วไปขนาดใหญ่,มหาชัย,เมืองสมุทรสาคร,สมุทรสาคร,เขต 5 ราชบุรี,หน่วยบริการในระบบหลักประกันสุขภาพแห่งชาติ,เอกชน,โรงพยาบาล (เอกชน),927/43 ค. หมู่ที่- ซอย- ถนนเศรษกิจ 1 ตำบลมหาชัย อำเภอเมืองสมุทรสาคร จังหวัดสมุทรสาคร 74000,180,หน่วยบริการที่รับการส่งต่อเฉพาะด้านสร้างเสริมสุขภาพและป้องกันโรค,9/9/2567,-
,12140,,สมุทรสาคร,,,-,-,-,-,,160,12140,โรงพยาบาลทั่วไปขนาดใหญ่วิชัยเวช อินเตอร์เนชั่นแนล สมุทรสาคร,ท่าทราย,เมืองสมุทรสาคร,สมุทรสาคร,เขต 5 ราชบุรี,หน่วยบริการในระบบหลักประกันสุขภาพแห่งชาติ,เอกชน,โรงพยาบาล (เอกชน),93/256 หมู่ที่07 ซอย- ถนนเศรษฐกิจ 1 ตำบลท่าทราย อำเภอเมืองสมุทรสาคร จังหวัดสมุทรสาคร 74000,120,หน่วยบริการที่รับการส่งต่อเฉพาะด้านสร้างเสริมสุขภาพและป้องกันโรค,19/01/2569,-
,12267,,นครราชสีมา,,,-,-,-,,,161,12267,ศูนย์อนามัยที่ 9 นครราชสีมา,โคกกรวด,เมืองนครราชสีมา,นครราชสีมา,เขต 9 นครราชสีมา,หน่วยบริการในระบบหลักประกันสุขภาพแห่งชาติ,รัฐในสธ.(นอก สป.),สังกัดกรมอนามัย,177 หมู่ที่06 ซอย- ถนน- ตำบลโคกกรวด อำเภอเมืองนครราชสีมา จังหวัดนครราชสีมา 30280,60,หน่วยบริการที่รับการส่งต่อทั่วไป NON-CAPITATION,1/7/2564,-
,12270,,อุบลราชธานี,,,-,-,-,-,,162,12270,โรงพยาบาลส่งเสริมสุขภาพ ศูนย์อนามัยที่ 10,ธาตุ,วารินชำราบ,อุบลราชธานี,เขต 10 อุบลราชธานี,หน่วยบริการในระบบหลักประกันสุขภาพแห่งชาติ,รัฐในสธ.(นอก สป.),สังกัดกรมอนามัย,45 บ้านบัว หมู่ที่04 ซอย- ถนนถนนสถลมาร์ค ตำบลธาตุ อำเภอวารินชำราบ จังหวัดอุบลราชธานี 34190,15,หน่วยบริการที่รับการส่งต่อทั่วไป NON-CAPITATION,1/7/2564,-
12273-รพ.ส่งเสริมสุขภาพ ศูนย์อนามัยที่ 7,12273,รพ.ส่งเสริมสุขภาพ ศูนย์อนามัยที่ 7,ขอนแก่น,16.42937826,102.8510921,49,49,144000,open,,163,12273,โรงพยาบาลส่งเสริมสุขภาพ ศูนย์อนามัยที่ 7,ในเมือง,เมืองขอนแก่น,ขอนแก่น,เขต 7 ขอนแก่น,หน่วยบริการในระบบหลักประกันสุขภาพแห่งชาติ,รัฐในสธ.(นอก สป.),สังกัดกรมอนามัย,195 หมู่ที่04 ซอย- ถนนถ.ศรีจันทร์ ตำบลในเมือง อำเภอเมืองขอนแก่น จังหวัดขอนแก่น 40000,10,หน่วยบริการที่รับการส่งต่อทั่วไป NON-CAPITATION,1/10/2561,-
12279-รพ.ส่งเสริมสุขภาพ ศูนย์อนามัยที่ 1,12279,รพ.ส่งเสริมสุขภาพ ศูนย์อนามัยที่ 1,เชียงใหม่,18.77314025,98.9948517,138,139,417000,open,,164,12279,โรงพยาบาลส่งเสริมสุขภาพ ศูนย์อนามัยที่ 1,ช้างคลาน,เมืองเชียงใหม่,เชียงใหม่,เขต 1 เชียงใหม่,หน่วยบริการในระบบหลักประกันสุขภาพแห่งชาติ,รัฐในสธ.(นอก สป.),สังกัดกรมอนามัย,51 หมู่ที่- ซอย- ถนนประชาสัมพันธ์ ตำบลช้างคลาน อำเภอเมืองเชียงใหม่ จังหวัดเชียงใหม่ 50000,90,หน่วยบริการที่รับการส่งต่อทั่วไป NON-CAPITATION,1/7/2564,-
12284-รพ.ส่งเสริมสุขภาพ ศูนย์อนามัยที่ 3,12284,รพ.ส่งเสริมสุขภาพ ศูนย์อนามัยที่ 3,นครสวรรค์,15.67858172,100.1256431,-,-,-,-,,165,12284,โรงพยาบาลส่งเสริมสุขภาพ ศูนย์อนามัยที่ 3,นครสวรรค์ออก,เมืองนครสวรรค์,นครสวรรค์,เขต 3 นครสวรรค์,หน่วยบริการในระบบหลักประกันสุขภาพแห่งชาติ,รัฐในสธ.(นอก สป.),สังกัดกรมอนามัย,157 หมู่ที่- ซอย- ถนนพหลโยธิน ตำบลนครสวรรค์ออก อำเภอเมืองนครสวรรค์ จังหวัดนครสวรรค์ 60000,65,หน่วยบริการที่รับการส่งต่อทั่วไป NON-CAPITATION,1/10/2561,-
,12286,,ราชบุรี,,,-,-,-,-,,166,12286,โรงพยาบาลส่งเสริมสุขภาพ ศูนย์อนามัยที่ 5,หน้าเมือง,เมืองราชบุรี,ราชบุรี,เขต 5 ราชบุรี,หน่วยบริการในระบบหลักประกันสุขภาพแห่งชาติ,รัฐในสธ.(นอก สป.),สังกัดกรมอนามัย,429 หมู่ที่- ซอย- ถนนศรีสุริยวงศ์ ตำบลหน้าเมือง อำเภอเมืองราชบุรี จังหวัดราชบุรี 70000,60,หน่วยบริการที่รับการส่งต่อทั่วไป NON-CAPITATION,1/10/2561,-
,12287,,นครศรีธรรมราช,,,-,-,-,-,,167,12287,โรงพยาบาลส่งเสริมสุขภาพ ศูนย์อนามัยที่ 11,บางจาก,เมืองนครศรีธรรมราช,นครศรีธรรมราช,เขต 11 สุราษฎร์ธานี,หน่วยบริการในระบบหลักประกันสุขภาพแห่งชาติ,รัฐในสธ.(นอก สป.),สังกัดกรมอนามัย,99 หมู่ที่- ซอย- ถนนนครศรีฯ-ปากพนัง ตำบลบางจาก อำเภอเมืองนครศรีธรรมราช จังหวัดนครศรีธรรมราช 80000,30,หน่วยบริการที่รับการส่งต่อทั่วไป CAPITATION,1/10/2561,-
13756-รพ.จุฬาลงกรณ์สภากาชาดไทย,13756,รพ.จุฬาลงกรณ์สภากาชาดไทย,กรุงเทพมหานคร,13.73256156,100.5357428,163,163,489000,open,,168,13756,โรงพยาบาลจุฬาลงกรณ์สภากาชาดไทย,วังใหม่,เขตปทุมวัน,กรุงเทพฯ,เขต 13 กรุงเทพมหานคร,หน่วยบริการในระบบหลักประกันสุขภาพแห่งชาติ,รัฐพิเศษ,สังกัดสภากาชาดไทย,1873 หมู่ที่- ซอย- ถนนพระราม 4 แขวงวังใหม่ เขตปทุมวัน กรุงเทพมหานคร 10330,1433,หน่วยบริการที่รับการส่งต่อทั่วไป CAPITATION,1/10/2561,-
13777-รพ.ศรีนครินทร์ มหาวิทยาลัยขอนแก่น,13777,รพ.ศรีนครินทร์ มหาวิทยาลัยขอนแก่น,ขอนแก่น,16.4681,102.8298,-,-,-,open,,169,13777,โรงพยาบาลศรีนครินทร์ มหาวิทยาลัยขอนแก่น,ในเมือง,เมืองขอนแก่น,ขอนแก่น,เขต 7 ขอนแก่น,หน่วยบริการในระบบหลักประกันสุขภาพแห่งชาติ,รัฐนอก สธ.,สังกัดกระทรวงการอุดมศึกษา วิทยาศาสตร์ วิจัยและนวัตกรรม,123 หมู่ที่16 ซอย- ถนนมิตรภาพ ตำบลในเมือง อำเภอเมืองขอนแก่น จังหวัดขอนแก่น 40000,777,หน่วยบริการที่รับการส่งต่อทั่วไป CAPITATION,1/10/2561,-
13778-รพ.ธรรมศาสตร์เฉลิมพระเกียรติ,13778,รพ.ธรรมศาสตร์เฉลิมพระเกียรติ,ปทุมธานี,14.0736,100.6153,-,-,-,open,,170,13778,โรงพยาบาลธรรมศาสตร์เฉลิมพระเกียรติ,คลองหนึ่ง,คลองหลวง,ปทุมธานี,เขต 4 สระบุรี,หน่วยบริการในระบบหลักประกันสุขภาพแห่งชาติ,รัฐนอก สธ.,สังกัดกระทรวงการอุดมศึกษา วิทยาศาสตร์ วิจัยและนวัตกรรม,95 หมู่ที่- ซอย- ถนนพหลโยธิน ตำบลคลองหนึ่ง อำเภอคลองหลวง จังหวัดปทุมธานี 12120,372,หน่วยบริการที่รับการส่งต่อทั่วไป CAPITATION,27/06/2566,-
13779-รพ.สงขลานครินทร์ มหาวิทยาลัยสงขลานครินทร์,13779,รพ.สงขลานครินทร์ มหาวิทยาลัยสงขลานครินทร์,สงขลา,7.007,100.4948,-,-,-,open,,171,13779,โรงพยาบาลสงขลานครินทร์  มหาวิทยาลัยสงขลานครินทร์,คอหงส์,หาดใหญ่,สงขลา,เขต 12 สงขลา,หน่วยบริการในระบบหลักประกันสุขภาพแห่งชาติ,รัฐนอก สธ.,สังกัดกระทรวงการอุดมศึกษา วิทยาศาสตร์ วิจัยและนวัตกรรม,110/5 หมู่ที่- ซอย- ถนนกาญจนวนิช ตำบลคอหงส์ อำเภอหาดใหญ่ จังหวัดสงขลา 90110,732,หน่วยบริการที่รับการส่งต่อทั่วไป CAPITATION,1/10/2561,-
,13780,,เชียงใหม่,,,-,-,-,-,,172,13780,โรงพยาบาลมหาราชนครเชียงใหม่  มหาวิทยาลัยเชียงใหม่,ศรีภูมิ,เมืองเชียงใหม่,เชียงใหม่,เขต 1 เชียงใหม่,หน่วยบริการในระบบหลักประกันสุขภาพแห่งชาติ,รัฐนอก สธ.,สังกัดกระทรวงการอุดมศึกษา วิทยาศาสตร์ วิจัยและนวัตกรรม,110 หมู่ที่- ซอย- ถนนอินทวโรรส ตำบลศรีภูมิ อำเภอเมืองเชียงใหม่ จังหวัดเชียงใหม่ 50200,1282,หน่วยบริการที่รับการส่งต่อทั่วไป CAPITATION,1/10/2561,-
13781-รพ.รามาธิบดี  มหาวิทยาลัยมหิดล,13781,รพ.รามาธิบดี  มหาวิทยาลัยมหิดล,กรุงเทพมหานคร,13.76617127,100.5267416,239,240,720000,open,,173,13781,โรงพยาบาลรามาธิบดี  มหาวิทยาลัยมหิดล,ถนนพญาไท,เขตราชเทวี,กรุงเทพฯ,เขต 13 กรุงเทพมหานคร,หน่วยบริการในระบบหลักประกันสุขภาพแห่งชาติ,รัฐนอก สธ.,สังกัดกระทรวงการอุดมศึกษา วิทยาศาสตร์ วิจัยและนวัตกรรม,270 หมู่ที่- ซอย- ถนนพระราม 6 แขวงถนนพญาไท เขตราชเทวี กรุงเทพมหานคร 10400,938,หน่วยบริการที่รับการส่งต่อทั่วไป CAPITATION,1/10/2561,-
13814-รพ.ศิริราช,13814,รพ.ศิริราช,กรุงเทพมหานคร,13.759887,100.483429,-,-,-,open,,174,13814,โรงพยาบาลศิริราช,ศิริราช,เขตบางกอกน้อย,กรุงเทพฯ,เขต 13 กรุงเทพมหานคร,หน่วยบริการในระบบหลักประกันสุขภาพแห่งชาติ,รัฐนอก สธ.,สังกัดกระทรวงการอุดมศึกษา วิทยาศาสตร์ วิจัยและนวัตกรรม,2 หมู่ที่- ซอย- ถนนพรานนก แขวงศิริราช เขตบางกอกน้อย กรุงเทพมหานคร 10700,1792,หน่วยบริการที่รับการส่งต่อทั่วไป CAPITATION,1/10/2561,-
14550-รพ.ขนาดใหญ่เชียงใหม่ใกล้หมอ,14550,รพ.ขนาดใหญ่เชียงใหม่ใกล้หมอ,เชียงใหม่,18.7604,98.9719,-,-,-,open,,175,14550,โรงพยาบาลทั่วไปขนาดใหญ่เชียงใหม่ใกล้หมอ,ป่าแดด,เมืองเชียงใหม่,เชียงใหม่,เขต 1 เชียงใหม่,หน่วยบริการในระบบหลักประกันสุขภาพแห่งชาติ,เอกชน,โรงพยาบาล (เอกชน),"158 ,158/69 หมู่ที่10 ซอย- ถนนเชียงใหม่-ฮอด ตำบลป่าแดด อำเภอเมืองเชียงใหม่ จังหวัดเชียงใหม่ 50000",119,หน่วยบริการที่รับการส่งต่อทั่วไป CAPITATION,11/2/2569,-
14641-รพ.ราชพิพัฒน์,14641,รพ.ราชพิพัฒน์,กรุงเทพมหานคร,13.73064804,100.3669821,38,38,114000,open,,176,14641,โรงพยาบาลราชพิพัฒน์,บางไผ่,เขตบางแค,กรุงเทพฯ,เขต 13 กรุงเทพมหานคร,หน่วยบริการในระบบหลักประกันสุขภาพแห่งชาติ,รัฐนอก สธ.,สังกัดกรุงเทพมหานคร,919 หมู่ที่04 ซอย- ถนนพุทธมณฑลสาย 3 แขวงบางไผ่ เขตบางแค กรุงเทพมหานคร 10161,102,หน่วยบริการที่รับการส่งต่อทั่วไป CAPITATION,8/11/2566,-
,14663,,ยะลา,,,-,-,-,-,,177,14663,โรงพยาบาลส่งเสริมสุขภาพ ศูนย์อนามัยที่ 12,สะเตง,เมืองยะลา,ยะลา,เขต 12 สงขลา,หน่วยบริการในระบบหลักประกันสุขภาพแห่งชาติ,รัฐในสธ.(นอก สป.),สังกัดกรมอนามัย,95 หมู่ที่- ซอย- ถนนเทศบาล ตำบลสะเตง อำเภอเมืองยะลา จังหวัดยะลา 95000,60,หน่วยบริการที่รับการส่งต่อทั่วไป NON-CAPITATION,1/7/2564,-
14904-รพ.ศูนย์การแพทย์สมเด็จพระเทพรัตนราชสุดาฯ,14904,รพ.ศูนย์การแพทย์สมเด็จพระเทพรัตนราชสุดาฯ,นครนายก,14.1118,100.9848,-,-,-,open,,178,14904,โรงพยาบาลศูนย์การแพทย์สมเด็จพระเทพรัตนราชสุดาฯ,องครักษ์,องครักษ์,นครนายก,เขต 4 สระบุรี,หน่วยบริการในระบบหลักประกันสุขภาพแห่งชาติ,รัฐนอก สธ.,สังกัดกระทรวงการอุดมศึกษา วิทยาศาสตร์ วิจัยและนวัตกรรม,62 หมู่ที่07 ซอย- ถนนรังสิต - นครนายก ตำบลองครักษ์ อำเภอองครักษ์ จังหวัดนครนายก 26120,367,หน่วยบริการที่รับการส่งต่อทั่วไป CAPITATION,1/5/2566,-
15049-รพ.สิรินธร,15049,รพ.สิรินธร,กรุงเทพมหานคร,13.71808541,100.707137,29,29,87000,open,,179,15049,โรงพยาบาลสิรินธร,ประเวศ,เขตประเวศ,กรุงเทพฯ,เขต 13 กรุงเทพมหานคร,หน่วยบริการในระบบหลักประกันสุขภาพแห่งชาติ,รัฐนอก สธ.,สังกัดกรุงเทพมหานคร,20 หมู่ที่- ซอยอ่อนนุช90 ถนนอ่อนนุช 90 แขวงประเวศ เขตประเวศ กรุงเทพมหานคร 10250,136,หน่วยบริการที่รับการส่งต่อทั่วไป CAPITATION,1/10/2561,-
16588-คลินิกเวชกรรม สวท บางเขน,16588,คลินิกเวชกรรม สวท บางเขน,กรุงเทพมหานคร,13.84549609,100.5601158,87,87,261000,open,,180,16588,คลินิกเวชกรรม สวท บางเขน,จตุจักร,เขตจตุจักร,กรุงเทพฯ,เขต 13 กรุงเทพมหานคร,หน่วยบริการในระบบหลักประกันสุขภาพแห่งชาติ,เอกชน,คลินิก (เอกชน),8 หมู่ที่- ซอย- ถนนซอย วิภาวดีรังสิต 44 แขวงจตุจักร เขตจตุจักร กรุงเทพมหานคร 10900,0,หน่วยบริการที่รับการส่งต่อเฉพาะด้านสร้างเสริมสุขภาพและป้องกันโรค,1/7/2564,-
18645-คลินิก สวท เวชกรรม,18645,คลินิก สวท เวชกรรม,เชียงใหม่,18.79630585,99.0085805,179,179,537000,open,,181,18645,คลินิก สวท เวชกรรม,วัดเกต,เมืองเชียงใหม่,เชียงใหม่,เขต 1 เชียงใหม่,หน่วยบริการในระบบหลักประกันสุขภาพแห่งชาติ,เอกชน,คลินิก (เอกชน),200/3 หมู่ที่- ซอย- ถนนบำรุงราษฎร์ ตำบลวัดเกต อำเภอเมืองเชียงใหม่ จังหวัดเชียงใหม่ 50000,0,หน่วยบริการที่รับการส่งต่อเฉพาะด้านสร้างเสริมสุขภาพและป้องกันโรค,1/7/2564,-
22953-รพ.สุทธาเวช คณะแพทยศาสตร์ มหาวิทยาลัยมหาสารคาม,22953,รพ.สุทธาเวช คณะแพทยศาสตร์ มหาวิทยาลัยมหาสารคาม,มหาสารคาม,16.19965453,103.2851581,244,245,735000,open,,182,22953,โรงพยาบาลสุทธาเวช คณะแพทยศาสตร์ มหาวิทยาลัยมหาสารคาม,ตลาด,เมืองมหาสารคาม,มหาสารคาม,เขต 7 ขอนแก่น,หน่วยบริการในระบบหลักประกันสุขภาพแห่งชาติ,รัฐนอก สธ.,สังกัดกระทรวงการอุดมศึกษา วิทยาศาสตร์ วิจัยและนวัตกรรม,269 หมู่ที่- ซอย- ถนนนครสวรรค์ ตำบลตลาด อำเภอเมืองมหาสารคาม จังหวัดมหาสารคาม 44000,40,หน่วยบริการที่รับการส่งต่อทั่วไป CAPITATION,20/01/2565,-
,23771,,นราธิวาส,,,-,-,-,-,,183,23771,โรงพยาบาลชุมชนยี่งอเฉลิมพระเกียรติ 80 พรรษา,ยี่งอ,ยี่งอ,นราธิวาส,เขต 12 สงขลา,หน่วยบริการในระบบหลักประกันสุขภาพแห่งชาติ,รัฐในสธ.(สังกัด สป.),โรงพยาบาลชุมชน (รพช.) / โรงพยาบาลยุพราช (รพร.),1/17 หมู่ที่04 ซอย- ถนน- ตำบลยี่งอ อำเภอยี่งอ จังหวัดนราธิวาส 96180,36,หน่วยบริการที่รับการส่งต่อทั่วไป CAPITATION,1/10/2561,-
,24032,,อุบลราชธานี,,,-,-,-,-,,184,24032,โรงพยาบาลชุมชนนาตาล,นาตาล,นาตาล,อุบลราชธานี,เขต 10 อุบลราชธานี,หน่วยบริการในระบบหลักประกันสุขภาพแห่งชาติ,รัฐในสธ.(สังกัด สป.),โรงพยาบาลชุมชน (รพช.) / โรงพยาบาลยุพราช (รพร.),169 หมู่ที่05 ซอย- ถนน- ตำบลนาตาล อำเภอนาตาล จังหวัดอุบลราชธานี -,30,หน่วยบริการที่รับการส่งต่อทั่วไป CAPITATION,1/10/2561,-
24636-คลินิกเวชกรรมหมอวิเชียร 2,24636,คลินิกเวชกรรมหมอวิเชียร 2,เพชรบุรี,13.10624583,99.95019386,49,49,147000,open,,185,24636,คลินิกเวชกรรมหมอวิเชียร 2,ท่าราบ,เมืองเพชรบุรี,เพชรบุรี,เขต 5 ราชบุรี,หน่วยบริการในระบบหลักประกันสุขภาพแห่งชาติ,เอกชน,คลินิก (เอกชน),181 หมู่ที่- ซอย- ถนนมาตยาวงษ์ ตำบลท่าราบ อำเภอเมืองเพชรบุรี จังหวัดเพชรบุรี 76000,0,หน่วยบริการที่รับการส่งต่อเฉพาะด้านเวชกรรม,1/9/2568,-
,25058,,อุดรธานี,,,-,-,-,-,,186,25058,โรงพยาบาลกู่แก้ว,บ้านจีต,กู่แก้ว,อุดรธานี,เขต 8 อุดรธานี,หน่วยบริการในระบบหลักประกันสุขภาพแห่งชาติ,รัฐในสธ.(สังกัด สป.),โรงพยาบาลชุมชน (รพช.) / โรงพยาบาลยุพราช (รพร.),- หมู่ที่07 ซอย- ถนน- ตำบลบ้านจีต อำเภอกู่แก้ว จังหวัดอุดรธานี 41130,10,หน่วยบริการที่รับการส่งต่อทั่วไป CAPITATION,3/2/2565,-
26241-คลินิกกอบกุลการแพทย์,26241,คลินิกกอบกุลการแพทย์,ชุมพร,10.49942648,99.17483784,303,304,912000,open,,187,26241,คลินิกกอบกุลการแพทย์,ท่าตะเภา,เมืองชุมพร,ชุมพร,เขต 11 สุราษฎร์ธานี,หน่วยบริการในระบบหลักประกันสุขภาพแห่งชาติ,เอกชน,คลินิก (เอกชน),91/1 หมู่ที่- ซอย- ถนนท่าตะเภา ตำบลท่าตะเภา อำเภอเมืองชุมพร จังหวัดชุมพร 86000,0,หน่วยบริการที่รับการส่งต่อเฉพาะด้านสร้างเสริมสุขภาพและป้องกันโรค,1/7/2564,-
,27844,,สุรินทร์,,,-,-,-,,,188,27844,โรงพยาบาลโนนนารายณ์,หนองหลวง,โนนนารายณ์,สุรินทร์,เขต 9 นครราชสีมา,หน่วยบริการในระบบหลักประกันสุขภาพแห่งชาติ,รัฐในสธ.(สังกัด สป.),โรงพยาบาลชุมชน (รพช.) / โรงพยาบาลยุพราช (รพร.),- หมู่ที่06 ซอย- ถนน- ตำบลหนองหลวง อำเภอโนนนารายณ์ จังหวัดสุรินทร์ 32130,30,หน่วยบริการที่รับการส่งต่อทั่วไป CAPITATION,1/10/2561,-
,28823,,เชียงราย,,,-,-,-,-,,189,28823,โรงพยาบาลดอยหลวง,ปงน้อย,ดอยหลวง,เชียงราย,เขต 1 เชียงใหม่,หน่วยบริการในระบบหลักประกันสุขภาพแห่งชาติ,รัฐในสธ.(สังกัด สป.),โรงพยาบาลชุมชน (รพช.) / โรงพยาบาลยุพราช (รพร.),- หมู่ที่08 ซอย- ถนน- ตำบลปงน้อย อำเภอดอยหลวง จังหวัดเชียงราย 57110,0,หน่วยบริการประจำ,1/10/2561,-
29648-คลินิกศรีสมัยการแพทย์,29648,คลินิกศรีสมัยการแพทย์,ประจวบคีรีขันธ์,12.57608906,99.94605154,7482,7525,22572000,open,,190,29648,คลินิกศรีสมัยการแพทย์,หัวหิน,หัวหิน,ประจวบคีรีขันธ์,เขต 5 ราชบุรี,หน่วยบริการในระบบหลักประกันสุขภาพแห่งชาติ,เอกชน,คลินิก (เอกชน),12/340 หมู่ที่- ซอย- ถนนหมู่บ้านเขาน้อย ตำบลหัวหิน อำเภอหัวหิน จังหวัดประจวบคีรีขันธ์ 77110,0,หน่วยบริการที่รับการส่งต่อเฉพาะด้านสร้างเสริมสุขภาพและป้องกันโรค,1/7/2564,-
34717-คลินิก สวท เวชกรรม,34717,คลินิก สวท เวชกรรม,สงขลา,7.00125573,100.4627221,7502,7560,22677000,open,,191,34717,คลินิก สวท เวชกรรม,หาดใหญ่,หาดใหญ่,สงขลา,เขต 12 สงขลา,หน่วยบริการในระบบหลักประกันสุขภาพแห่งชาติ,เอกชน,คลินิก (เอกชน),8-12 หมู่ที่- ซอย- ถนนราษฎร์อุทิศ ตำบลหาดใหญ่ อำเภอหาดใหญ่ จังหวัดสงขลา 90110,0,หน่วยบริการที่รับการส่งต่อเฉพาะด้านสร้างเสริมสุขภาพและป้องกันโรค,1/7/2564,-
40846-คลินิกเฉพาะทางด้านเวชกรรม สวท เชียงราย,40846,คลินิกเฉพาะทางด้านเวชกรรม สวท เชียงราย,เชียงราย,19.90831552,99.85542161,100,100,300000,open,,192,40846,คลินิกเฉพาะทางด้านเวชกรรม สวท เชียงราย,เวียง,เมืองเชียงราย,เชียงราย,เขต 1 เชียงใหม่,หน่วยบริการในระบบหลักประกันสุขภาพแห่งชาติ,เอกชน,คลินิก (เอกชน),810/3 หมู่ที่- ซอย- ถนนพหลโยธิน ตำบลเวียง อำเภอเมืองเชียงราย จังหวัดเชียงราย 57000,0,หน่วยบริการที่รับการส่งต่อเฉพาะด้านสร้างเสริมสุขภาพและป้องกันโรค,1/7/2564,-
40854-คลินิก สวท เวชกรรม ลำปาง,40854,คลินิก สวท เวชกรรม ลำปาง,ลำปาง,18.27599822,99.49801782,350,350,1050000,open,,193,40854,คลินิก สวท เวชกรรม ลำปาง,พระบาท,เมืองลำปาง,ลำปาง,เขต 1 เชียงใหม่,หน่วยบริการในระบบหลักประกันสุขภาพแห่งชาติ,เอกชน,คลินิก (เอกชน),152/53-54 หมู่ที่- ซอย- ถนนลำปาง-แม่ทะ ตำบลพระบาท อำเภอเมืองลำปาง จังหวัดลำปาง 52000,0,หน่วยบริการที่รับการส่งต่อเฉพาะด้านสร้างเสริมสุขภาพและป้องกันโรค,1/7/2564,-
40970-รพ.ศูนย์การแพทย์มหาวิทยาลัยวลัยลักษณ์,40970,รพ.ศูนย์การแพทย์มหาวิทยาลัยวลัยลักษณ์,นครศรีธรรมราช,8.642359569,99.91301589,29,30,87000,open,,194,40970,โรงพยาบาลศูนย์การแพทย์มหาวิทยาลัยวลัยลักษณ์,ไทยบุรี,ท่าศาลา,นครศรีธรรมราช,เขต 11 สุราษฎร์ธานี,หน่วยบริการในระบบหลักประกันสุขภาพแห่งชาติ,รัฐนอก สธ.,สังกัดกระทรวงการอุดมศึกษา วิทยาศาสตร์ วิจัยและนวัตกรรม,222 หมู่ที่- ซอย- ถนน- ตำบลไทยบุรี อำเภอท่าศาลา จังหวัดนครศรีธรรมราช 80160,341,หน่วยบริการที่รับการส่งต่อทั่วไป CAPITATION,10/11/2565,-
,41347,,พะเยา,,,-,-,-,-,,195,41347,โรงพยาบาลมหาวิทยาลัยพะเยา,แม่กา,เมืองพะเยา,พะเยา,เขต 1 เชียงใหม่,หน่วยบริการในระบบหลักประกันสุขภาพแห่งชาติ,รัฐนอก สธ.,สังกัดกระทรวงการอุดมศึกษา วิทยาศาสตร์ วิจัยและนวัตกรรม,19/1 หมู่ที่16 ซอย- ถนน- ตำบลแม่กา อำเภอเมืองพะเยา จังหวัดพะเยา 56000,120,หน่วยบริการที่รับการส่งต่อทั่วไป CAPITATION,8/11/2566,-
41367-โรงพยาบาลเดอะซีพลัส สมุทรปราการโรงพยาบาลทั่วไปขนาดเล็ก,41367,โรงพยาบาลเดอะซีพลัส สมุทรปราการโรงพยาบาลทั่วไปขนาดเล็ก,สมุทรปราการ,13.58000056,100.6551958,4,4,12000,open,,196,41367,โรงพยาบาลเดอะซีพลัส สมุทรปราการโรงพยาบาลทั่วไปขนาดเล็ก,แพรกษา,เมืองสมุทรปราการ,สมุทรปราการ,เขต 6 ระยอง,หน่วยบริการในระบบหลักประกันสุขภาพแห่งชาติ,เอกชน,โรงพยาบาล (เอกชน),8/8  หมู่ที่06 ซอยมังกร-ขันดี ถนน- ตำบลแพรกษา อำเภอเมืองสมุทรปราการ จังหวัดสมุทรปราการ 10280,30,หน่วยบริการที่รับการส่งต่อทั่วไป CAPITATION,21/08/2563,-
41367-โรงพยาบาลเดอะซีพลัส สมุทรปราการโรงพยาบาลทั่วไปขนาดเล็ก,41367,โรงพยาบาลเดอะซีพลัส สมุทรปราการโรงพยาบาลทั่วไปขนาดเล็ก,สมุทรปราการ,13.58000056,100.6551958,4,4,12000,open,,196,41367,โรงพยาบาลเดอะซีพลัส สมุทรปราการโรงพยาบาลทั่วไปขนาดเล็ก,แพรกษา,เมืองสมุทรปราการ,สมุทรปราการ,เขต 6 ระยอง,หน่วยบริการในระบบหลักประกันสุขภาพแห่งชาติ,เอกชน,โรงพยาบาล (เอกชน),8/8  หมู่ที่06 ซอยมังกร-ขันดี ถนน- ตำบลแพรกษา อำเภอเมืองสมุทรปราการ จังหวัดสมุทรปราการ 10280,30,หน่วยบริการที่รับการส่งต่อทั่วไป NON-CAPITATION,1/3/2567,-
41443-คลินิกเฉพาะทางด้านเวชกรรมสูติศาสตร์และนรีเวชวิทยา หมออยุทธ์,41443,คลินิกเฉพาะทางด้านเวชกรรมสูติศาสตร์และนรีเวชวิทยา หมออยุทธ์,ร้อยเอ็ด,16.06479368,103.6510318,81,81,240000,open,,197,41443,คลินิกเฉพาะทางด้านเวชกรรมสูติศาสตร์และนรีเวชวิทยา หมออยุทธ์,ในเมือง,เมืองร้อยเอ็ด,ร้อยเอ็ด,เขต 7 ขอนแก่น,หน่วยบริการในระบบหลักประกันสุขภาพแห่งชาติ,เอกชน,คลินิก (เอกชน),28/1-2 หมู่ที่- ซอย- ถนนถนนหายโศรก ตำบลในเมือง อำเภอเมืองร้อยเอ็ด จังหวัดร้อยเอ็ด 45000,0,หน่วยบริการที่รับการส่งต่อเฉพาะด้านสร้างเสริมสุขภาพและป้องกันโรค,1/7/2564,-
41509-รพ.ศูนย์การแพทย์มหาวิทยาลัยแม่ฟ้าหลวง,41509,รพ.ศูนย์การแพทย์มหาวิทยาลัยแม่ฟ้าหลวง,เชียงราย,20.03141472,99.8801617,5,5,15000,open,,198,41509,โรงพยาบาลศูนย์การแพทย์มหาวิทยาลัยแม่ฟ้าหลวง,นางแล,เมืองเชียงราย,เชียงราย,เขต 1 เชียงใหม่,หน่วยบริการในระบบหลักประกันสุขภาพแห่งชาติ,รัฐนอก สธ.,สังกัดกระทรวงการอุดมศึกษา วิทยาศาสตร์ วิจัยและนวัตกรรม,365 หมู่ที่12 ซอย- ถนน- ตำบลนางแล อำเภอเมืองเชียงราย จังหวัดเชียงราย 57100,80,หน่วยบริการที่รับการส่งต่อทั่วไป CAPITATION,11/6/2567,-
41537-คลินิกชุมชนเชียงใหม่เวชกรรม,41537,คลินิกชุมชนเชียงใหม่เวชกรรม,เชียงใหม่,18.78563908,98.98397192,-,-,-,open,,199,41537,คลินิกชุมชนเชียงใหม่เวชกรรม,พระสิงห์,เมืองเชียงใหม่,เชียงใหม่,เขต 1 เชียงใหม่,หน่วยบริการในระบบหลักประกันสุขภาพแห่งชาติ,เอกชน,คลินิก (เอกชน),167 หมู่ที่- ซอย- ถนนถนนราชมรรคา ตำบลพระสิงห์ อำเภอเมืองเชียงใหม่ จังหวัดเชียงใหม่ 50000,0,หน่วยบริการที่รับการส่งต่อเฉพาะด้านสร้างเสริมสุขภาพและป้องกันโรค,1/7/2564,-
42129-พริบตาแทนเจอรีนสหคลินิก,42129,พริบตาแทนเจอรีนสหคลินิก,กรุงเทพมหานคร,13.7329606,100.5311978,2803,2824,8460000,open,,200,42129,พริบตาแทนเจอรีนสหคลินิก,ปทุมวัน,เขตปทุมวัน,กรุงเทพฯ,เขต 13 กรุงเทพมหานคร,หน่วยบริการในระบบหลักประกันสุขภาพแห่งชาติ,เอกชน,คลินิก (เอกชน),319 อาคารจตุรัสจามจุรี ชั้น 11 ยูนิต 1109-1116 หมู่ที่- ซอย- ถนนพญาไท แขวงปทุมวัน เขตปทุมวัน กรุงเทพมหานคร 10330,0,หน่วยบริการที่รับการส่งต่อเฉพาะด้านเวชกรรม,25/09/2566,-
42221-รักษ์ลาซาลคลินิกเวชกรรม,42221,รักษ์ลาซาลคลินิกเวชกรรม,กรุงเทพมหานคร,13.66121442,100.6121576,239,246,738000,open,,201,42221,รักษ์ลาซาลคลินิกเวชกรรม,บางนาใต้,เขตบางนา,กรุงเทพฯ,เขต 13 กรุงเทพมหานคร,หน่วยบริการในระบบหลักประกันสุขภาพแห่งชาติ,เอกชน,คลินิก (เอกชน),"323,325 ชั้น 1,ชั้นลอย หมู่ที่00 ซอย- ถนนลาซาล แขวงบางนาใต้ เขตบางนา กรุงเทพมหานคร 10260",0,หน่วยบริการที่รับการส่งต่อเฉพาะด้านเวชกรรม,6/10/2567,-
42231-คลินิกเฉพาะทางด้านเวชกรรมสูติศาสตร์และนรีเวชวิทยานายแพทย์วรชาติ,42231,คลินิกเฉพาะทางด้านเวชกรรมสูติศาสตร์และนรีเวชวิทยานายแพทย์วรชาติ,นครราชสีมา,15.22783526,102.4939635,591,591,1761000,open,,202,42231,คลินิกเฉพาะทางด้านเวชกรรมสูติศาสตร์และนรีเวชวิทยานายแพทย์วรชาติ,ในเมือง,พิมาย,นครราชสีมา,เขต 9 นครราชสีมา,หน่วยบริการในระบบหลักประกันสุขภาพแห่งชาติ,เอกชน,คลินิก (เอกชน),22 หมู่ที่19 ซอย- ถนน- ตำบลในเมือง อำเภอพิมาย จังหวัดนครราชสีมา 30110,0,หน่วยบริการที่รับการส่งต่อเฉพาะด้านสร้างเสริมสุขภาพและป้องกันโรค,1/7/2564,-
42338-คลินิกเฉพาะทางด้านเวชกรรมสาขาสูติศาสตร์นรีเวชวิทยา หมอสิทธิโชค,42338,คลินิกเฉพาะทางด้านเวชกรรมสาขาสูติศาสตร์นรีเวชวิทยา หมอสิทธิโชค,ชลบุรี,13.42511,101.04005,-,-,-,open,,203,42338,คลินิกเฉพาะทางด้านเวชกรรมสาขาสูติศาสตร์นรีเวชวิทยา หมอสิทธิโชค,ดอนหัวฬ่อ,เมืองชลบุรี,ชลบุรี,เขต 6 ระยอง,หน่วยบริการในระบบหลักประกันสุขภาพแห่งชาติ,เอกชน,คลินิก (เอกชน),68/8 หมู่ที่05 ซอย- ถนน- ตำบลดอนหัวฬ่อ อำเภอเมืองชลบุรี จังหวัดชลบุรี 20000,0,หน่วยบริการที่รับการส่งต่อเฉพาะด้านเวชกรรม,25/02/2568,-
42725-หมออภิเดชคลินิกเฉพาะทางด้านเวชกรรมสูติศาสตร์และนรีเวชวิทยา,42725,หมออภิเดชคลินิกเฉพาะทางด้านเวชกรรมสูติศาสตร์และนรีเวชวิทยา,สุราษฎร์ธานี,9.163776118,99.46115759,1543,1544,4632000,open,,204,42725,หมออภิเดชคลินิกเฉพาะทางด้านเวชกรรมสูติศาสตร์และนรีเวชวิทยา,กะแดะ,กาญจนดิษฐ์,สุราษฎร์ธานี,เขต 11 สุราษฎร์ธานี,หน่วยบริการในระบบหลักประกันสุขภาพแห่งชาติ,เอกชน,คลินิก (เอกชน),125/17-18 หมู่ที่04 ซอย- ถนน- ตำบลกะแดะ อำเภอกาญจนดิษฐ์ จังหวัดสุราษฎร์ธานี 84160,0,หน่วยบริการที่รับการส่งต่อเฉพาะด้านสร้างเสริมสุขภาพและป้องกันโรค,3/5/2565,-
42977-โทนี่ เมดิแคร์ คลินิกเวชกรรม,42977,โทนี่ เมดิแคร์ คลินิกเวชกรรม,ระยอง,12.98992,101.20692,-,-,-,open,,205,42977,โทนี่ เมดิแคร์ คลินิกเวชกรรม,ปลวกแดง,ปลวกแดง,ระยอง,เขต 6 ระยอง,หน่วยบริการในระบบหลักประกันสุขภาพแห่งชาติ,เอกชน,คลินิก (เอกชน),"789,789/1 หมู่ที่05 ซอย- ถนน- ตำบลปลวกแดง อำเภอปลวกแดง จังหวัดระยอง 21140",0,หน่วยบริการที่รับการส่งต่อเฉพาะด้านเวชกรรม,3/1/2568,-
44788-คลินิกหมอศุภโชค คลินิกเฉพาะทางด้านเวชกรรมสูตินรีเวช,44788,คลินิกหมอศุภโชค คลินิกเฉพาะทางด้านเวชกรรมสูตินรีเวช,ชัยภูมิ,16.11003095,102.2583536,63,63,189000,open,,206,44788,คลินิกหมอศุภโชค คลินิกเฉพาะทางด้านเวชกรรมสูตินรีเวช,ช่องสามหมอ,แก้งคร้อ,ชัยภูมิ,เขต 9 นครราชสีมา,หน่วยบริการในระบบหลักประกันสุขภาพแห่งชาติ,เอกชน,คลินิก (เอกชน),446 หมู่ที่01 ซอย- ถนน- ตำบลช่องสามหมอ อำเภอแก้งคร้อ จังหวัดชัยภูมิ 36150,0,หน่วยบริการที่รับการส่งต่อเฉพาะด้านเวชกรรม,6/12/2567,-
47466-พักใจคลินิกเวชกรรม,47466,พักใจคลินิกเวชกรรม,กรุงเทพมหานคร,13.6250238,100.5100607,5822,6059,17997000,open,,207,47466,พักใจคลินิกเวชกรรม,ทุ่งครุ,เขตทุ่งครุ,กรุงเทพฯ,เขต 13 กรุงเทพมหานคร,หน่วยบริการในระบบหลักประกันสุขภาพแห่งชาติ,เอกชน,คลินิก (เอกชน),"5,7 ชั้น 1 หมู่ที่- ซอยประชาอุทิศ 97/1 ถนน- แขวงทุ่งครุ เขตทุ่งครุ กรุงเทพมหานคร 10140",0,หน่วยบริการที่รับการส่งต่อเฉพาะด้านเวชกรรม,5/8/2567,-
47673-คลินิกเฉพาะทางเวชกรรมสูตินรีเวชหมอกษมพล,47673,คลินิกเฉพาะทางเวชกรรมสูตินรีเวชหมอกษมพล,นครศรีธรรมราช,8.50796791,99.95901814,740,740,765000,open,,208,47673,คลินิกเฉพาะทางเวชกรรมสูตินรีเวชหมอกษมพล,ปากพูน,เมืองนครศรีธรรมราช,นครศรีธรรมราช,เขต 11 สุราษฎร์ธานี,หน่วยบริการในระบบหลักประกันสุขภาพแห่งชาติ,เอกชน,คลินิก (เอกชน),161/3 หมู่ที่01 ซอย- ถนน- ตำบลปากพูน อำเภอเมืองนครศรีธรรมราช จังหวัดนครศรีธรรมราช 80000,0,หน่วยบริการที่รับการส่งต่อเฉพาะด้านเวชกรรม,22/05/2567,-
,49561,,บุรีรัมย์,,,-,-,-,,,209,49561,คลินิก นพ.ธัชชัย(เมือง) คลินิกเฉพาะทางด้านเวชกรรมสาขาสูตินรีเวช,ในเมือง,เมืองบุรีรัมย์,บุรีรัมย์,เขต 9 นครราชสีมา,หน่วยบริการในระบบหลักประกันสุขภาพแห่งชาติ,เอกชน,คลินิก (เอกชน),18/15 หมู่ที่- ซอย- ถนนปลัดเมือง ตำบลในเมือง อำเภอเมืองบุรีรัมย์ จังหวัดบุรีรัมย์ 31000,0,หน่วยบริการที่รับการส่งต่อเฉพาะด้านเวชกรรม,22/09/2567,-
53912-คลินิกเวชกรรม หมอกษมพล ชุมพร,53912,คลินิกเวชกรรม หมอกษมพล ชุมพร,ชุมพร,10.50114003,99.15534099,7,7,21000,open,,210,53912,คลินิกเวชกรรม หมอกษมพล ชุมพร,วังไผ่,เมืองชุมพร,ชุมพร,เขต 11 สุราษฎร์ธานี,หน่วยบริการในระบบหลักประกันสุขภาพแห่งชาติ,เอกชน,คลินิก (เอกชน),235/14 หมู่ที่01 ซอย- ถนน- ตำบลวังไผ่ อำเภอเมืองชุมพร จังหวัดชุมพร 86000,0,หน่วยบริการที่รับการส่งต่อเฉพาะด้านเวชกรรม,21/02/2568,-
54481-คลินิกเวชกรรมหมอกษมพล กทม.,54481,คลินิกเวชกรรมหมอกษมพล กทม.,กรุงเทพมหานคร,8.410746,99.96128,-,-,-,open,,211,54481,คลินิกเวชกรรมหมอกษมพล กทม.,ถนนพญาไท,เขตราชเทวี,กรุงเทพฯ,เขต 13 กรุงเทพมหานคร,หน่วยบริการในระบบหลักประกันสุขภาพแห่งชาติ,เอกชน,คลินิก (เอกชน),481/6 ชั้น 1 หมู่ที่- ซอย- ถนนราชวิถี แขวงถนนพญาไท เขตราชเทวี กรุงเทพมหานคร 10400,0,หน่วยบริการที่รับการส่งต่อเฉพาะด้านเวชกรรม,15/05/2568,-
,54491,,นครราชสีมา,,,-,-,-,,,212,54491,คลินิกเฉพาะทางด้านเวชกรรมสูตินรีเวช หมอวัทน์สิริ,ในเมือง,พิมาย,นครราชสีมา,เขต 9 นครราชสีมา,หน่วยบริการในระบบหลักประกันสุขภาพแห่งชาติ,เอกชน,คลินิก (เอกชน),3/11-12 หมู่ที่01 ซอย- ถนน- ตำบลในเมือง อำเภอพิมาย จังหวัดนครราชสีมา 30110,0,หน่วยบริการที่รับการส่งต่อเฉพาะด้านเวชกรรม,26/12/2568,-
54944-คลินิกเวชกรรมหมอกษมพล สมุทรสาคร,54944,คลินิกเวชกรรมหมอกษมพล สมุทรสาคร,สมุทรสาคร,13.55629,100.27841,-,-,-,open,,213,54944,คลินิกเวชกรรมหมอกษมพล สมุทรสาคร,มหาชัย,เมืองสมุทรสาคร,สมุทรสาคร,เขต 5 ราชบุรี,หน่วยบริการในระบบหลักประกันสุขภาพแห่งชาติ,เอกชน,คลินิก (เอกชน),1600/66 หมู่ที่- ซอย- ถนนท่าปรง ตำบลมหาชัย อำเภอเมืองสมุทรสาคร จังหวัดสมุทรสาคร 74000,0,หน่วยบริการที่รับการส่งต่อเฉพาะด้านเวชกรรม,1/7/2568,-
55906-ดีดีเเคร์คลินิก คลินิกเวชกรรม,55906,ดีดีเเคร์คลินิก คลินิกเวชกรรม,นครปฐม,13.82974559,100.1035055,39,39,117000,open,,214,55906,ดีดีเเคร์คลินิก คลินิกเวชกรรม,สามควายเผือก,เมืองนครปฐม,นครปฐม,เขต 5 ราชบุรี,หน่วยบริการในระบบหลักประกันสุขภาพแห่งชาติ,เอกชน,คลินิก (เอกชน),88/49 หมู่ที่04 ซอย- ถนน- ตำบลสามควายเผือก อำเภอเมืองนครปฐม จังหวัดนครปฐม 73000,0,หน่วยบริการที่รับการส่งต่อเฉพาะด้านเวชกรรม,14/07/2568,-
10666-รพ.มหาราชนครราชสีมา,10666,รพ.มหาราชนครราชสีมา,นครราชสีมา,14.98486844,102.1034119,4,4,12000,open,,,,,,,นครราชสีมา,,,,,,,,,
10667-รพ.บุรีรัมย์,10667,รพ.บุรีรัมย์,บุรีรัมย์,15.00602078,103.1008104,860,861,2583000,open,,,,,,,บุรีรัมย์,,,,,,,,,
10672-รพ.ลำปาง,10672,รพ.ลำปาง,ลำปาง,18.28705401,99.5059798,3,3,9000,open,,,,,,,ลำปาง,,,,,,,,,
10688-รพ.เสนา,10688,รพ.เสนา,พระนครศรีอยุธยา,14.32118996,100.388113,1,1,3000,open,,,,,,,พระนครศรีอยุธยา,,,,,,,,,
10689-รพ.อ่างทอง,10689,รพ.อ่างทอง,อ่างทอง,14.58482128,100.452184,12,12,36000,open,,,,,,,อ่างทอง,,,,,,,,,
10690-รพ.พระนารายณ์มหาราช,10690,รพ.พระนารายณ์มหาราช,ลพบุรี,14.80501361,100.6525809,4,4,12000,open,,,,,,,ลพบุรี,,,,,,,,,
10699-รพร.สระแก้ว,10699,รพร.สระแก้ว,สระแก้ว,13.81693211,102.0722629,1,1,3000,open,,,,,,,สระแก้ว,,,,,,,,,
10700-รพ.ศรีสะเกษ,10700,รพ.ศรีสะเกษ,ศรีสะเกษ,15.11628061,104.3201609,7,7,21000,open,,,,,,,ศรีสะเกษ,,,,,,,,,
10703-รพ.อำนาจเจริญ,10703,รพ.อำนาจเจริญ,อำนาจเจริญ,15.86403915,104.6238398,12,12,36000,open,,,,,,,อำนาจเจริญ,,,,,,,,,
10718-รพ.เชียงคำ,10718,รพ.เชียงคำ,พะเยา,19.51873025,100.296179,56,57,171000,open,,,,,,,พะเยา,,,,,,,,,
10751-รพ.สุไหงโก-ลก,10751,รพ.สุไหงโก-ลก,นราธิวาส,6.027313998,101.9707441,3,3,9000,open,,,,,,,นราธิวาส,,,,,,,,,
10791-รพ.ชัยบาดาล,10791,รพ.ชัยบาดาล,ลพบุรี,15.21569893,101.1457033,14,14,42000,open,,,,,,,ลพบุรี,,,,,,,,,
10805-รพ.สรรคบุรี,10805,รพ.สรรคบุรี,ชัยนาท,15.04497325,100.1431718,4,4,12000,open,,,,โรงพยาบาลชุมชน สรรคบุรี,,,ชัยนาท,เขต 3 นครสวรรค์,หน่วยบริการในระบบหลักประกันสุขภาพแห่งชาติ,รัฐในสธ.(สังกัด สป.),โรงพยาบาลชุมชน (รพช.) / โรงพยาบาลยุพราช (รพร.),108 หมู่ที่08 ซอย- ถนนชัยนาท-สุพรรณบุรี ตำบลแพรกศรีราชา อำเภอสรรคบุรี จังหวัดชัยนาท 17140,,,,
10827-รพ.เฉลิมพระเกียรติ สมเด็จพระเทพรัตนราชสุดาฯ สยามบรมราชกุมารี ระยอง,10827,รพ.เฉลิมพระเกียรติ สมเด็จพระเทพรัตนราชสุดาฯ สยามบรมราชกุมารี ระยอง,ระยอง,12.73072636,101.1363278,6,6,18000,open,,,,,,,ระยอง,,,,,,,,,
11057-รพ.พยัคฆภูมิพิสัย,11057,รพ.พยัคฆภูมิพิสัย,มหาสารคาม,15.51665123,103.1951335,1,1,3000,open,,,,,,,มหาสารคาม,,,,,,,,,
11094-รพ.นิคมน้ำอูน,11094,รพ.นิคมน้ำอูน,สกลนคร,17.18513173,103.7151898,2,2,6000,open,,,,,,,สกลนคร,,,,,,,,,
11142-รพ.ลี้,11142,รพ.ลี้,ลำพูน,17.77189224,98.95812708,2,2,6000,open,,,,,,,ลำพูน,เขต 1 เชียงใหม่,หน่วยบริการในระบบหลักประกันสุขภาพแห่งชาติ,รัฐในสธ.(สังกัด สป.),โรงพยาบาลชุมชน (รพช.) / โรงพยาบาลยุพราช (รพร.),111 หมู่ที่04 ซอย- ถนนพหลโยธิน ตำบลลี้ อำเภอลี้ จังหวัดลำพูน 51110,67,-,-,-
11182-รพ.บ่อเกลือ,11182,รพ.บ่อเกลือ,น่าน,19.1515185,101.1536242,1,1,3000,open,,,,,,,น่าน,,,,,,,,,
11200-รพ.แม่ฟ้าหลวง,11200,รพ.แม่ฟ้าหลวง,เชียงราย,20.25835344,99.64911702,2,2,6000,open,,,,,,,เชียงราย,,,,,,,,,
11256-รพ.วังทอง,11256,รพ.วังทอง,พิษณุโลก,16.84013687,100.4343171,1,1,3000,open,,,,,,,พิษณุโลก,,,,,,,,,
11302-รพ.สามพราน,11302,รพ.สามพราน,นครปฐม,13.74867032,100.2606226,1,1,3000,open,,,,,,,นครปฐม,,,,,,,,,
11314-รพ.แก่งกระจาน,11314,รพ.แก่งกระจาน,เพชรบุรี,12.92471251,99.72201894,1,1,3000,open,,,,,,,เพชรบุรี,,,,,,,,,
11324-รพ.ลานสกา,11324,รพ.ลานสกา,นครศรีธรรมราช,8.364860686,99.79996898,3,3,9000,open,,,,,,,นครศรีธรรมราช,,,,,,,,,
11326-รพ.พิปูน,11326,รพ.พิปูน,นครศรีธรรมราช,8.5402082,99.60848074,3,3,9000,open,,,,,,,นครศรีธรรมราช,,,,,,,,,
11327-รพ.เชียรใหญ่,11327,รพ.เชียรใหญ่,นครศรีธรรมราช,8.162049554,100.1371022,3,3,9000,open,,,,,,,นครศรีธรรมราช,,,,,,,,,
11367-รพ.บ้านนาเดิม,11367,รพ.บ้านนาเดิม,สุราษฎร์ธานี,8.89270829,99.30553627,3,3,9000,open,,,,,,,สุราษฎร์ธานี,,,,,,,,,
11387-รพ.จะนะ,11387,รพ.จะนะ,สงขลา,6.915026957,100.7400869,3,3,9000,open,,,,,,,สงขลา,,,,,,,,,
11401-รพ.คลองหอยโข่ง,11401,รพ.คลองหอยโข่ง,สงขลา,6.905420707,100.3969506,1,1,3000,open,,,,,,,สงขลา,,,,,,,,,
11402-รพ.ควนโดน,11402,รพ.ควนโดน,สตูล,6.776390078,100.0952549,5,5,15000,open,,,,,,,สตูล,,,,,,,,,
11406-รพ.ทุ่งหว้า,11406,รพ.ทุ่งหว้า,สตูล,7.0930089,99.76672012,1,1,3000,open,,,,,,,สตูล,,,,,,,,,
11411-รพ.ห้วยยอด,11411,รพ.ห้วยยอด,ตรัง,7.802445299,99.62816025,1,1,3000,open,,,,,,,ตรัง,,,,,,,,,
11434-รพ.รามัน,11434,รพ.รามัน,ยะลา,6.473609477,101.4182489,3,3,9000,open,,,,,,,ยะลา,,,,,,,,,
11444-รพร.เลิงนกทา,11444,รพร.เลิงนกทา,ยโสธร,16.19658062,104.5147649,12,12,36000,open,,,,,,,ยโสธร,,,,,,,,,
11464-รพ.กะพ้อ,11464,รพ.กะพ้อ,ปัตตานี,6.571190952,101.5423113,10,10,30000,open,,,,,,,ปัตตานี,,,,,,,,,
11469-รพ.เลิดสิน,11469,รพ.เลิดสิน,กรุงเทพมหานคร,13.72233188,100.5173473,1,1,3000,open,,,,,,,กรุงเทพมหานคร,,,,,,,,,
14173-รพ.ตำรวจ,14173,รพ.ตำรวจ,กรุงเทพมหานคร,13.7428413,100.538543,3,3,9000,open,,,,,,,กรุงเทพมหานคร,,,,,,,,,
23924-รพ.มหาชัย 3 โรงพยาบาลทั่วไปขนาดใหญ่,23924,รพ.มหาชัย 3 โรงพยาบาลทั่วไปขนาดใหญ่,สมุทรสาคร,13.55695494,100.2717401,3,3,9000,open,,,,,,,สมุทรสาคร,,,,,,,,,
38877-คลินิกเวชกรรม สวท ขอนแก่น,38877,คลินิกเวชกรรม สวท ขอนแก่น,ขอนแก่น,16.42979285,102.8404303,1613,1627,4881000,open,,,,,,,ขอนแก่น,,,,,,,,,
,,คลินิกเวชกรรม ทานตะวัน,กรุงเทพมหานคร,13.76698839,100.4911781,-,-,-,open,ยังไม่ได้เข้าร่วมสปสช.,,,,,,กรุงเทพมหานคร,,,,,,,,,
12243-สถาบันพัฒนาสุขภาวะเขตเมือง,12243,สถาบันพัฒนาสุขภาวะเขตเมือง,กรุงเทพมหานคร,13.872211,100.596776,1,1,3000,open,,,,,,,กรุงเทพมหานคร,,,,,,,,,
,,คลินิกเวชกรรมสมาคมวางแผนครอบครัวแห่งประเทศไทย (สวท.),อุบลราชธานี,15.22886545,104.862084,-,-,-,open,ยังไม่ได้เข้าร่วมสปสช.,,,,,,,,,,,,,,,
